koryakov_db_id,eng_vil_name,rus_vil_name,lang_1_K,lang_2_K,lang_1_S,lang_2_S,same_languages,name_1885,name_1895,name_1926,name_2010,census_1885,census_1895,census_1926,census_2010,Lat,Lon,Republic,elevation,LevK_comments
1949,Avadan,Авадан,North Azerbaijani,NA,Lezgian,NA,FALSE,Араблир,Арабляр,Арабляр,Авадан,149,145,76,2855,41.93376,48.33858,Daghestan,6.30205154418945,NA
1051,Agada,Агада,Avar,NA,Avar,NA,TRUE,NA,NA,Ахада,Агада,NA,NA,35,45,42.412001,46.841895,Daghestan,1210.09204101563,NA
3657,Agachaul,Агачаул,Kumyk,NA,Kumyk,NA,TRUE,Агач-аул,Агач-аул,Агач-Аул,Агачаул,469,305,534,1811,42.92306,47.46064,Daghestan,250.854614257812,NA
855,Agachkala,Агачкала,Kumyk,NA,Kumyk,NA,TRUE,Агач-Кала,NA,Агач-Кала,Агачкала,24,NA,90,447,42.76698,47.07599,Daghestan,686.41064453125,NA
215,Agvali,Агвали,Chamalal,NA,Chamalal,NA,TRUE,Ашали,Агвали (Агуали),Агвали,Агвали,181,183,213,2453,42.541192,46.121798,Daghestan,962.579956054688,?
287,Agvali,Агвали,Chamalal,NA,Chamalal,NA,TRUE,NA,NA,Агвали,NA,NA,NA,72,NA,42.541192,46.121798,Daghestan,962.579956054688,?
2055,Aglobi,Аглоби,тат+,NA,Lezgian,NA,FALSE,Аглаби (Агляби),"Аглаби (Агляби, Оглак)",Аглаби,Аглоби,139,145,165,2343,41.90152,48.35017,Daghestan,17.4916496276856,NA
2359,Adaga,Адага,Dargwa,кайт.,Dargwa,NA,TRUE,Адага (Адагай),Адага (Адагай),Адага,Адага,428,418,432,162,42.00972,47.71357,Daghestan,1109.09155273438,NA
669,Adanak,Аданак,Kumyk,NA,Kumyk,NA,TRUE,NA,NA,Аданак,Аданак,NA,NA,19,1464,42.7522,47.4586,Daghestan,297.048889160156,NA
3665,Adzhidada,Аджидада,Kumyk,NA,Avar,NA,FALSE,NA,NA,Аджидада,Аджидада,NA,NA,147,1645,43.2861,47.0731,Daghestan,-10.7896680831909,NA
1539,Adukmakhi,Адукмахи,Dargwa,сев.,Dargwa,NA,TRUE,NA,NA,Адук-Махи,Адукмахи,NA,NA,21,0,42.39928,47.401891,Daghestan,1446.87512207031,NA
3209,Azadogly,Азадоглы,Lezgian,NA,Lezgian,NA,TRUE,Азат-оглы,Азад-оглы (Азадуглы),Азад-Оглы,Азадоглы,36,42,295,1695,41.83019,48.448480000000004,Daghestan,37.29150390625,NA
4739,Azilta,Азильта,Tsez,цезский,Tsez,NA,TRUE,Азильта,Азильта (Азцло),Азильта,Азильта,79,86,21,246,42.260166,45.938182,Daghestan,1986.77307128906,NA
657,Aymaki,Аймаки,Avar,NA,Avar,NA,TRUE,Аймаки,Аймаки (Аймеки),Аймаки,Аймаки,663,748,884,2342,42.5342,47.1383,Daghestan,1282.49133300781,NA
1833,Aymaumakhi,Аймаумахи,Dargwa,сев.,Dargwa,NA,TRUE,NA,Аймаула,Аймац-Махи,Аймаумахи,NA,190,356,255,42.363756,47.575203,Daghestan,1175.51672363281,NA
1739,Aynikab,Айникаб,Dargwa,цуд.,Dargwa,NA,TRUE,Айлакав-Махи,Айлакаб-Махи,Айла-Кав,Айникаб,162,195,73,103,42.369307,47.216093,Daghestan,1565.57507324219,NA
1293,Aynikabmakhi,Айникабмахи,Dargwa,сев.,Dargwa,NA,TRUE,Айникаб,Айникаб-Махи,Айни Каб,Айникабмахи,327,373,146,380,42.26679,47.36264,Daghestan,1481.97375488281,NA
1599,Aynurbimakhi,Айнурбимахи,Dargwa,сев.,Dargwa,NA,TRUE,NA,Айнурби,Айнурви-Махи,Айнурбимахи,NA,321,390,287,42.29623,47.58462,Daghestan,1204.91027832031,NA
1541,Aysalakak,Айсалакак,Dargwa,сев.,Dargwa,NA,TRUE,NA,Айсалакак,Айсала-Как,Айсалакак,NA,45,81,21,42.374896,47.474825,Daghestan,1476.25439453125,NA
8017,Aytkhan,Айтхан,NA,NA,Andi,NA,NA,NA,NA,NA,Айтхан,NA,NA,NA,379,43.69773,46.82498,Daghestan,-8.53425312042236,NA
879,Akaytala,Акайтала,Avar,NA,Avar,NA,TRUE,NA,NA,Акайтала,Акайтала,NA,NA,197,688,43.03176,46.92583,Daghestan,475.864715576172,NA
3897,Akaro (Yazykovka),Акаро,Chechen,NA,Avar,NA,FALSE,NA,NA,Эзиков,Акаро,NA,NA,90,173,43.352007,46.977198,Daghestan,-7.03167057037354,NA
4677,Akdy,Акды,Tsez,цезский,Tsez,NA,TRUE,Акиди,Акиды (Акты),Акти,Акды,65,64,47,53,42.25829,45.82798,Daghestan,2121.26440429688,NA
2295,Akka,Акка,Tabasaran,NA,Tabasaran,NA,TRUE,Агка (Ака),"Агка (Ака, Ахчка, Аква)",Акка,Акка,122,124,134,599,41.92686,47.9297,Daghestan,741.257202148438,NA
217,Aknada,Акнада,Tindi,NA,Tindi,NA,TRUE,Акнада,"Акнода (Аканада, Ашанажи)",Акнода,Акнада,502,503,519,120,42.4024828,46.1693204,Daghestan,1756.12231445313,Цумадинский район
8101,Aknada,Акнада,NA,NA,Tindi,NA,NA,NA,NA,NA,Акнада,NA,NA,NA,4010,42.4024828,46.1693204,Daghestan,1756.12231445313,Цумадинский район
1287,Akusha,Акуша,Dargwa,сев.,Dargwa,NA,TRUE,Акуша,Акуша,Акуши,Акуша,1988,2349,2512,4700,42.275664,47.340107,Daghestan,1391.779296875,NA
1287,Akusha,Акуша,Dargwa,сев.,Dargwa,NA,TRUE,Акуша,Панжук,Акуши,Акуша,1988,953,2512,4700,42.275664,47.340107,Daghestan,1391.779296875,NA
1033,Akushali,Акушали,Avar,NA,Avar,NA,TRUE,NA,NA,Акушали,Акушали,NA,NA,85,51,42.4992,46.9504,Daghestan,1617.04846191406,NA
219,Alak,Алак,Avar,NA,Avar,NA,TRUE,Алак,Алакъ (Алади),Алак,Алак,665,654,779,2759,42.6092,46.1972,Daghestan,1810.92053222656,NA
1385,Alikhanmakhi,Алиханмахи,Dargwa,цуд.,Dargwa,NA,TRUE,Али-Хан-Махи,Алихан-Махи,Алихан-Махи,Алиханмахи,405,395,340,831,42.33194,47.26602,Daghestan,1555.15637207031,NA
3031,Alkadar,Алкадар,Lezgian,NA,Lezgian,NA,TRUE,Алкодар (Аулкодар),Алкадар (Аулкодар),Алкадар,Алкадар,397,368,324,970,41.7163,48.08667,Daghestan,631.227966308594,NA
1691,Allate,Аллате,Dargwa,цуд.,Dargwa,NA,TRUE,NA,Алалти-Махи,Аллате,Аллате,NA,455,551,713,42.369057,47.184036,Daghestan,1388.552734375,NA
3827,Almalo,Алмало,Russian,NA,Avar,NA,FALSE,NA,NA,Алмоло,Алмало,NA,NA,24,1620,43.0967,47.2253,Daghestan,10.9668636322022,NA
1497,Amalte,Амалте,Dargwa,цуд.,Dargwa,NA,TRUE,Аммалты-Махи,Аммалти-Махи,Амалты-Махи,Амалте,153,197,166,272,42.42457,47.11047,Daghestan,1111.91564941406,NA
1389,Ameterkmakhi,Аметеркмахи,Dargwa,цуд.,Dargwa,NA,TRUE,Аметерк-Махи,"Аматерк-Махи (Амед-Терк-Махи, Улхулахар)",Аметерк-Махи,Аметеркмахи,725,721,441,2139,42.33081,47.213539,Daghestan,1137.05822753906,NA
15,Amishta,Амишта,Avar,NA,Avar,NA,TRUE,Амишта (Гамишта),Амишта (Гамишта),Амишта,Амишта,122,141,135,129,42.62967,46.552971,Daghestan,1484.29345703125,NA
21,Amushi Bol'shoe,Амущи Большое,Avar,NA,Avar,NA,TRUE,Амуши-большие (Бакта-Гамуши),Амуши Большие (Бакта Амуши),Амуши больш.,Амущи Большое,581,550,551,1510,42.63752,46.4864,Daghestan,1033.43017578125,NA
23,Amushi Maloe,Амущи Малое,Avar,NA,Avar,NA,TRUE,Амуши малые  (Хунда-Амуши),Амуши Малые (Хунда Амуши),Амуши малый,Амущи Малое,159,137,187,126,42.650445,46.487815,Daghestan,825.459167480469,NA
4187,Anada,Анада,Avar,NA,Avar,NA,TRUE,Аада,Аада (Агада),Апада,Анада,59,0,38,50,42.17306,46.36917,Daghestan,1882.53393554688,NA
221,Angida,Ангида,Tindi,NA,Tindi,NA,TRUE,Ангида,Ангида,Ангида,Ангида,471,426,517,7,42.43279,46.1924,Daghestan,1881.74572753906,NA
8013,Andi,Анди,NA,NA,Andi,NA,NA,NA,NA,NA,Анди,NA,NA,NA,5590,42.7856,46.2639,Daghestan,1585.87963867188,NA
8006,Anduz,Андуз,NA,NA,Karata,NA,NA,NA,NA,NA,Андуз,NA,NA,NA,154,43.52361,46.87639,Daghestan,-8,NA
25,Andykh,Андых,Avar,NA,Avar,NA,TRUE,Андик (Хандик),Андых (Андикъ),Андых,Андых,557,595,602,971,42.5119,46.5939,Daghestan,1528.25048828125,NA
3457,Anklukh,Анклух,Dargwa,амухский,Dargwa,NA,TRUE,Анклуг (Анклёги),"Анклуг (Анклух, Анклеги, Анклюглу)",Анклух,Анклух,189,177,195,13,41.91667,47.53333,Daghestan,1976.40209960938,NA
249,Ansalta,Ансалта,Avar,NA,Avar,NA,TRUE,Аисалта,"Ансалты (Ансалта, Ансалъ)",Ансальта,Ансалта,1265,1381,1373,4598,42.6939,46.1147,Daghestan,1103.71447753906,NA
8022,Ankhvala,Анхвала,NA,NA,Avar,NA,NA,NA,NA,NA,Анхвала,NA,NA,NA,309,43.65583,46.90389,Daghestan,-12,NA
253,Anchik (Anchikh),Анчик,Karata,карат.,Karata,NA,TRUE,Анчик  (Анчиди),Анчикъ (Анчиди),Анчик,Анчик,571,664,813,817,42.608098,46.271717,Daghestan,1196.12072753906,NA
873,Apshi,Апши,Kumyk,NA,Avar,NA,FALSE,Анши (Ганши),"Апши (Абши, Г-)",Хапши,Апши,1487,1431,1832,1655,42.6094,47.1742,Daghestan,1209.52526855469,NA
2105,Arak,Арак,Tabasaran,NA,Tabasaran,NA,TRUE,Арак,Арак,Арак,Арак,318,322,315,462,41.96112,47.98984,Daghestan,726.893981933594,NA
27,Arakani,Аракани,Avar,NA,Avar,NA,TRUE,Араканы (Харакуни),Араканы (Харакуни),Араканы,Аракани,1050,1190,882,1638,42.610078,46.991711,Daghestan,858.093566894531,NA
3929,Arakul,Аракул,Lak,NA,Lak,NA,TRUE,Арахкул (Деккюль),"Аракуль (Арахкуль, Деккюль)",Аракул,Аракул,532,554,481,423,41.77377,47.21238,Daghestan,2117.37841796875,NA
1631,Arassamakhi,Арассамахи,Dargwa,сирхинско-тантынский,Dargwa,NA,TRUE,Араса-Махи,Араса-Махи,Араса-Махи,Арассамахи,57,31,49,30,42.0579,47.40111,Daghestan,1823.64318847656,NA
1601,Arachanamakhi,Арачанамахи,Dargwa,сев.,Dargwa,NA,TRUE,NA,NA,Арачана-Махи,Арачанамахи,NA,NA,65,187,42.31923,47.58202,Daghestan,1124.91882324219,NA
257,Argvani,Аргвани,Avar,NA,Avar,NA,TRUE,Аргуани,Аргуани,Аргуани,Аргвани,914,958,974,797,42.8128,46.5792,Daghestan,1593.82104492188,NA
659,Arkas,Аркас,Avar,NA,Avar,NA,TRUE,Аркась,Аркас (Гаркас),Аркас,Аркас,140,146,268,317,42.65194,47.13833,Daghestan,1281.19482421875,NA
2111,Arkit,Аркит,Tabasaran,NA,Tabasaran,NA,TRUE,Аркит,Аркит,Аркит,Аркит,359,404,422,608,41.947308,48.014025,Daghestan,651.925903320312,NA
3151,Arsug,Арсуг,Aghul,кошанский,Aghul,NA,TRUE,Арсуг,Арсуг (Арсух),Арсуг,Арсуг,286,316,331,235,41.86408,47.65011,Daghestan,1990.76062011719,NA
4369,Artlukh,Артлухъ,NA,NA,Avar,NA,NA,Артлух,Артлухъ,NA,NA,329,367,NA,NA,42.8631,46.6683,Daghestan,2046.63842773438,NA
921,Archib,Арчиб,Archi,верхне-андийски,Archi,NA,TRUE,Арчи (Ручь),Арчи (Ручь),Арчи,Арчиб,804,765,126,200,42.0664,46.8678,Daghestan,2009.66833496094,NA
259,Archo,Арчо,Karata,карат.,Karata,NA,TRUE,Арчо (Ачуди),"Арчо (Арчу, Ачуди, Арчубъ)",Арчо,Арчо,326,299,406,346,42.597691,46.305756,Daghestan,1524.14245605469,NA
3109,Archug,Арчуг,Tabasaran,NA,Tabasaran,NA,TRUE,Арчуг,"Арчюг (Арчух, Арзух)",Арчуг,Арчуг,100,102,158,109,41.7843,47.86009,Daghestan,1382.79296875,NA
3137,Asakent,Асакент,Lezgian,NA,Lezgian,NA,TRUE,Аса-кент (Асади-хюр),Аса-Кент (Асади-хюр),Асакент,Асакент,309,273,219,107,41.75759,48.00748,Daghestan,1033.77355957031,NA
3091,Asalikent,Асаликент,Lezgian,NA,Lezgian,NA,TRUE,Асали-кент (Аса-али-ди-хюр),Асали-Кент (Аса-Али-Динор),Асаликент,Асаликент,331,318,339,322,41.6298,48.16777,Daghestan,578.463317871094,NA
4679,Asakh,Асах,Tsez,цезский,Tsez,NA,TRUE,Асахо,Асахо (Асахъ),Асах,Асах,260,311,130,5,42.26311,45.81684,Daghestan,1857.06994628906,NA
261,Assab,Ассаб,Avar,NA,Avar,NA,TRUE,Асса,Асса (Ассабъ),Ассаб,Ассаб,946,979,835,1640,42.471596,46.492475,Daghestan,1596.57141113281,NA
3299,Atrik,Атрик,Tabasaran,NA,Tabasaran,NA,TRUE,Атриг,Атрио (Чилек),Атрик,Атрик,136,156,188,238,41.88042,47.78046,Daghestan,1743.97839355469,NA
2267,Afna,Афна,Tabasaran,NA,Tabasaran,NA,TRUE,Афна,Афна,Афна,Афна,118,122,97,193,41.902075,47.861413,Daghestan,1077.34875488281,NA
35,Akhalchi,Ахалчи,Avar,NA,Avar,NA,TRUE,Ахальчи,"Ахальчи (Нижний Большой и Верхний Малый А., Горль и Таса Тад А.)",Ахалчи,Ахалчи,894,843,502,734,42.594957,46.631744,Daghestan,1839.25402832031,NA
665,Akhkent,Ахкент,Avar,NA,Avar,NA,TRUE,Ахкенты (Кахаб-росо),Ахкент (Кахаб-Росо),Ахкент,Ахкент,301,330,394,1248,42.57353,47.18488,Daghestan,1544.99975585938,NA
2337,Akhmedkent,Ахмедкент,Dargwa,кайт.?,Dargwa,NA,TRUE,Ахмед-кент (Ахмала-ша),Ахмед Кент (Ахалаша),Ахмедкент,Ахмедкент,611,613,715,1026,42.12036,47.81047,Daghestan,678.575988769531,NA
3379,Akhnig,Ахниг,Lezgian,NA,Lezgian,NA,TRUE,Ахниг,"Агних (Агниг, Ахлик)",Ахниг,Ахниг,430,442,300,21,41.5232,47.99481,Daghestan,1169.36584472656,NA
1297,Akhsakadamakhi,Ахсакадамахи,Dargwa,сев.,Dargwa,NA,TRUE,NA,NA,Ахса-Кады-Хунту,Ахсакадамахи,NA,NA,44,205,42.303416,47.381576,Daghestan,1374.48095703125,NA
3931,Akhty,Ахты,Lezgian,NA,Lezgian,NA,TRUE,Ахты (Ахса),Ахты (Ахса),Ахты,Ахты,5935,5789,3870,13405,41.45904,47.746695,Daghestan,1056.3193359375,NA
3007,Ashaga-Arkhit,Ашага-Архит,Lezgian,NA,Lezgian,NA,TRUE,Ашага-Архит (Ага-Ерахт),"Ашага-Аркит (Ага-Ерахт, Нижний Аркит)",Ашага-Архит,Ашага-Архит,589,546,429,811,41.734607,47.97302,Daghestan,861.138244628906,NA
2999,Ashaga-Stal,Ашага-Стал,Lezgian,NA,Lezgian,NA,TRUE,"Ашага-Сталь (Ага-кран, Ага-Сталь)","Ашага-Стал (Ага-Стал, Ага-Кран, Нижний Стал)",Ашага-Сталь,Ашага-Стал,1312,1269,1342,2854,41.69724,48.19462,Daghestan,514.984130859375,NA
3005,Ashaga-Tsinit,Ашага-Цинит,Lezgian,NA,Lezgian,NA,TRUE,Ашага-Цинит (Ага-Цилинт),"Ашага-Цинит (Ага-Цилипт, Нижнее Цинит)",Ашага-Цинит,Ашага-Цинит,459,417,415,789,41.72324,48.00882,Daghestan,777.227172851562,NA
3011,Ashaga-Yarak,Ашага-Ярак,Tabasaran,NA,Tabasaran,NA,TRUE,Ярак нижний (Аскан-Ярак),"Ярак Нижний (Ярку Нижн., Аскан-Ярак)",Ашага-Ярак,Ашага-Ярак,338,342,582,1329,41.822988,47.952033,Daghestan,1242.81079101563,NA
2993,Ashagakartas,Ашагакартас,Lezgian,NA,Lezgian,NA,TRUE,Ашага-Картас (Ага-Картас),"Ашага-Картас (Ага-Картас, Нижний-Картас)",Ашага-Картас,Ашагакартас,544,502,306,192,41.63177,48.1193,Daghestan,689.695739746094,NA
3003,Ashaga-Stal-Kazmalyar,Ашагастал-Казмаляр,Lezgian,NA,Lezgian,NA,TRUE,NA,NA,Ашага-Стальские Казмаляры Ниж.,Ашага-Стал-Казмаляр,NA,NA,177,2979,41.681705,48.218336,Daghestan,409.447540283203,NA
3429,Ashakent,Ашакент,Lezgian,NA,Lezgian,NA,TRUE,NA,NA,Аша-Кент,Ашакент,NA,NA,279,210,41.59479,47.87241,Daghestan,1874.18786621094,NA
231,Ashali,Ашали,Andi,верхне-андийски,Andi,NA,TRUE,Ашали,Ашали (Ашуламъ),Ашали,Ашали,263,286,138,788,42.76963,46.30878,Daghestan,1573.82092285156,NA
3017,Ashar,Ашар,Lezgian,NA,Lezgian,NA,TRUE,Ашар,Ашар,Ашар,Ашар,669,711,614,567,41.615664,47.663417,Daghestan,1595.80969238281,NA
45,Ashil'ta,Ашильта,Avar,NA,Avar,NA,TRUE,Ашильта (Ашель),Ашильта (Ашель),Ашильта,Ашильта,443,478,586,1982,42.772446,46.728853,Daghestan,640.283020019531,NA
8015,Ashino,Ашино,NA,NA,Botlikh,NA,NA,NA,NA,NA,Ашино,NA,NA,NA,80,42.683462,46.156727,Daghestan,956.206176757813,NA
3471,Ashty,Ашты,Dargwa,кубач-ашт.,Dargwa,NA,TRUE,Ашти (Усти),"Ашты (Ашти, Усти)",Ашти,Ашты,894,887,913,395,41.961098,47.502559,Daghestan,1636.76684570313,NA
223,Asha,Аща,Tindi,NA,Tindi,NA,TRUE,Ашали,Ашша (Аша),Ашша,Аща,187,190,261,0,42.450373,46.3334458,Daghestan,3161.02319335937,NA
9005,Ayalakab,Аялакаб,Dargwa,сев.,Dargwa,NA,TRUE,NA,Аялакак,–,Аялакаб,NA,76,NA,390,42.4231,47.4625,Daghestan,1243.02075195312,NA
1837,Ayalizimakhi,Аялизимахи,Dargwa,сев.,Dargwa,NA,TRUE,Аялизи,Аялизи-Махи,Ая-Лизи-Махи,Аялизимахи,422,399,283,702,42.37684,47.60746,Daghestan,1055.11938476563,NA
1839,Ayamakhi,Аямахи,Dargwa,сев.,Dargwa,NA,TRUE,Ая-Махи,Ая-Махи,Ая-Махи,Аямахи,302,191,290,0,42.40528,47.5725,Daghestan,1096.869140625,NA
1491,Ayatsimakhi,Аяцимахи,Dargwa,сирхинско-тантынский,Dargwa,NA,TRUE,Аядцы-Махи,Аяци-Махи,Аяци-Махи,Аяцимахи,120,114,100,122,42.00618,47.46117,Daghestan,2041.28308105469,NA
1809,Ayatsuri,Аяцури,Dargwa,сирхинско-тантынский,Dargwa,NA,TRUE,Аяцуры-Махи,Аяцури-Махи,Ая-Цури,Аяцури,129,129,82,151,42.07354,47.45121,Daghestan,1704.47766113281,NA
3559,Bagikla,Багикла,Lak,NA,Lak,NA,TRUE,Багеклю (Бахикул),"Багеклю (Бахикуль, Бягиклялю)",Бачекла,Багикла,382,361,296,86,42.25308,47.13393,Daghestan,1435.11450195313,NA
1129,Baginub,Багинуб,Avar,NA,Avar,NA,TRUE,Багинуб (Багин),Баггинуб (Баггин),Багинуб,Багинуб,101,132,121,40,42.1743,46.88159,Daghestan,1917.81408691406,NA
2123,Bazhluk,Бажлук,Dargwa,кайт.,Dargwa,NA,TRUE,Бажлук (Бажули),"Бажлук (Бажули, Бажукли)",Бажлук,Бажлук,247,251,284,41,42.040295,47.808314,Daghestan,1167.46374511719,NA
47,Baitl',Баитль,Avar,NA,Avar,NA,TRUE,Баитль,Баитль,Бойтли,Баитль,165,176,144,202,42.546452,46.676472,Daghestan,1783.91552734375,NA
1719,Bakni,Бакни,Dargwa,сирхинско-тантынский,Dargwa,NA,TRUE,Бакни,Бакни,Бакни,Бакни,305,307,284,251,42.11618,47.53095,Daghestan,1476.041015625,NA
1057,Balanub,Балануб,Avar,NA,Avar,NA,TRUE,NA,NA,Баланаб,Балануб,NA,NA,120,115,42.4284,46.8251,Daghestan,1032.0556640625,NA
53,Balakhani,Балахани,Avar,NA,Avar,NA,TRUE,Балакани (Балахани),Балаканы (Балаханы),Балаханы,Балахани,898,904,1000,2166,42.63128,46.89514,Daghestan,889.520141601563,NA
1621,Baltamakhi,Балтамахи,Dargwa,сев.,Dargwa,NA,TRUE,NA,NA,Балта-Махи,Балтамахи,NA,NA,198,394,42.29843,47.72877,Daghestan,732.907775878906,NA
1401,Balkhar,Балхар,Lak,NA,Lak,NA,TRUE,Балхар,Балхар (Баркарлю),Балхар,Балхар,1424,1437,1195,941,42.2797,47.2314,Daghestan,1658.48388671875,NA
4107,Barnab,Барнаб,Avar,NA,Avar,NA,TRUE,Барнаб,Барнабъ (Баркабъ),Барнаб,Барнаб,97,103,93,400,42.07964,46.37894,Daghestan,1709.30212402344,NA
2211,Barshamay,Баршамай,Dargwa,кайт.,Dargwa,NA,TRUE,Баршемай,Баршемай (Баршамай),Баршамай,Баршамай,1070,1040,883,2112,42.11176,47.85143,Daghestan,555.4951171875,NA
51,Batlaich,Батлаич,Avar,NA,Avar,NA,TRUE,Батлаич,Батлаичъ (Батлагичъ),Батлаич,Батлаич,772,788,770,1083,42.554821,46.754217,Daghestan,1764.73999023438,NA
333,Batlakhatli,Батлахатли,Chamalal,NA,Chamalal,NA,TRUE,NA,NA,Битлохотль,Батлахатли,NA,NA,72,3,42.580364,46.058877,Daghestan,1727.35815429688,NA
1603,Bakhmakhi,Бахмахи,Dargwa,сев.,Dargwa,NA,TRUE,NA,NA,Бахли-Махи,Бахмахи,NA,NA,224,226,42.30638,47.59269,Daghestan,1170.33337402344,NA
3381,Bakhtsug,Бахцуг,Lezgian,NA,Lezgian,NA,TRUE,Багцуг,"Багцух (Бахцух, Бахсуг)",Бахцуг,Бахцуг,518,573,279,166,41.50975,47.95065,Daghestan,1282.392578125,NA
939,Batsada,Бацада,Avar,NA,Avar,NA,TRUE,Бацада,Бацада (Бецъ),Бацада,Бацада,725,835,877,755,42.3036,46.9092,Daghestan,1580.35974121094,NA
2151,Bashlykent,Башлыкент,Kumyk,NA,Kumyk,NA,TRUE,Александр-кент,Александр-Кент,Джалал-Кент,Башлыкент,1547,1610,1454,3230,42.2597,47.8439,Daghestan,280.568176269531,NA
3219,Bedyuk,Бедюк,Aghul,агульский собственно,Aghul,NA,TRUE,"Бедук (Бадёк, Витгих)","Бедук (Бадек, Виттих)",Бедук,Бедюк,209,221,292,301,41.716044,47.525715,Daghestan,2171.84130859375,NA
4121,Bezhta,Бежта,Bezhta,NA,Bezhta,NA,TRUE,Бежита,Бежита (Бежито),Бежита,Бежта,1490,1613,1058,3500,42.1339,46.1247,Daghestan,1633.08129882813,NA
4165,Bezhuda,Бежуда,Avar,NA,Avar,NA,TRUE,Бижида (Бежуда),Бежуда (Бежида),Бежуда,Бежуда,142,148,100,31,42.200348,46.479175,Daghestan,2288.99243164062,NA
8016,Beledi,Беледи,NA,NA,Godoberi,NA,NA,NA,NA,NA,Беледи,NA,NA,NA,91,42.66722,46.05361,Daghestan,1746.78979492188,NA
1951,Belidzhi,Белиджи (пгт),Lezgian,NA,Lezgian,NA,TRUE,NA,NA,Белиджи,Белиджи,NA,NA,104,12238,41.870833,48.388611,Daghestan,21.179744720459,NA
4715,Berikh,Берих,Tsez,цезский,Tsez,NA,TRUE,NA,NA,Пирох,Берих,NA,NA,52,209,42.23806,46.05306,Daghestan,1756.38781738281,NA
63,Betli,Бетли,Avar,NA,Avar,NA,TRUE,Бетль,Бетль (Бетлитль),Бетль,Бетли,311,335,283,18,42.72372,46.73388,Daghestan,1770.96838378906,NA
1635,Bikalamakhi,Бикаламахи,Dargwa,сирхинско-тантынский,Dargwa,NA,TRUE,Бийкала-Махи,Бийкала-Махи,Бикала-Махи,Бикаламахи,102,76,72,57,42.04647,47.36054,Daghestan,1772.30480957031,NA
3247,Bil'bil'-Kazmalyar,Бильбиль-Казмаляр,Lezgian,NA,Lezgian,NA,TRUE,NA,NA,Бильбиль-Кент-Казмаляр,Бильбиль-Казмаляр,NA,NA,443,2042,41.82188,48.5448,Daghestan,23.214786529541,NA
2035,Bil'gadi,Бильгади,North Azerbaijani,NA,North Azerbaijani,NA,TRUE,NA,NA,Бильгади Казмаляр,Бильгади,NA,NA,176,640,42.08581,48.13462,Daghestan,198.375442504883,NA
3777,Bogatyrevka,Богатыревка,Russian,NA,Avar,NA,FALSE,NA,NA,Коркмасовка,Богатыревка,NA,NA,210,3187,43.118523,47.368198,Daghestan,-20.8449687957764,?дубликат
3781,Bogatyrevka,Богатыревка,Russian,NA,Avar,NA,FALSE,NA,NA,Коркмасовка (б Осадченко),NA,NA,NA,4,NA,43.118523,47.368198,Daghestan,-20.8449687957764,?дубликат
1091,Bol'shoy Urala,Большой Урала,Avar,NA,Avar,NA,TRUE,NA,NA,Урала,Большой Урала,NA,NA,250,173,42.424277,46.805844,Daghestan,1331.03063964844,NA
263,Botlikh,Ботлих,Botlikh,NA,Botlikh,NA,TRUE,Ботлих,Болтих (Батлькалъ),Ботлих,Ботлих,1105,1041,1070,10787,42.667813,46.221451,Daghestan,963.75537109375,NA
4271,Bochokh,Бочох,Avar,NA,Avar,NA,TRUE,Бочок (Бочох),"Бочокъ (Бочохъ, Бочекъ)",Бочах,Бочох,40,49,28,81,42.22,46.28472,Daghestan,1851.06127929688,NA
1543,Buanzimakhi,Буанзимахи,Dargwa,сев.,Dargwa,NA,TRUE,NA,Буанцала,Буанцы,Буанзимахи,NA,140,173,168,42.42062,47.44966,Daghestan,1307.66564941406,NA
671,Buglen,Буглен,Kumyk,NA,Kumyk,NA,TRUE,Буглен,Буглен (Бугулен),Буглен,NA,1012,942,816,NA,42.7553,47.1989,Daghestan,521.49658203125,явно одно и то же село
1637,Bukkamakhi,Буккамахи,Dargwa,сирхинско-тантынский,Dargwa,NA,TRUE,Боккале-Махи (Буккале-Махи),Буккала-Махи,Букала-Махи,Буккамахи,178,167,118,58,42.03148,47.41884,Daghestan,1760.23791503906,NA
3275,Burgankent,Бурганкент,Tabasaran,NA,Tabasaran,NA,TRUE,Бурган-кент,Бургам-Кент (Бургах Кент),Бурган-Кент,Бурганкент,104,105,146,704,41.89939,48.06439,Daghestan,621.0244140625,NA
1305,Burgimakmakhi,Бургимакмахи,Dargwa,сев.,Dargwa,NA,TRUE,Бурхимак,Бурхимакъ-Махи,Бурги-Ман-Махи,Бургимакмахи,144,185,63,1283,42.2897,47.3769,Daghestan,1333.25146484375,NA
1307,Burgimakhi,Бургимахи,Dargwa,сев.,Dargwa,NA,TRUE,NA,NA,Бурхи-Махи,Бургимахи,NA,NA,50,136,42.27489,47.28652,Daghestan,1512.24951171875,NA
1407,Burdeki,Бурдеки,Dargwa,сев.,Dargwa,NA,TRUE,Бурдеки,"Бурдеки (Бурдаки, Вердюк, Мурдук)",Бурдек,Бурдеки,339,335,399,652,42.3047,47.6703,Daghestan,747.930297851562,NA
3021,Burkikhan,Буркихан,Aghul,агульский собственно,Aghul,NA,TRUE,"Боркихан (Буркихан, Гёкёпар)",Буркихан (Бор. - Гёкёнар),Буркихан,Буркихан,695,710,780,1193,41.806356,47.538467,Daghestan,1917.41918945313,NA
1905,Burtanimakhi,Буртанимахи,Dargwa,цуд.,Dargwa,NA,TRUE,NA,Буртани-Махи,Буртани-Махи Нижн.,Буртанимахи,NA,314,242,300,42.37097,47.14988,Daghestan,1071.83776855469,NA
1605,Burkhimakhi,Бурхимахи,Dargwa,сев.,Dargwa,NA,TRUE,NA,Бурха-Кент,Бурги-Махи,Бурхимахи,NA,162,171,130,42.3065,47.58607,Daghestan,1176.21948242188,NA
3153,Burshag,Буршаг,Aghul,кошанский,Aghul,NA,TRUE,Буршаг,Буршаг (Пурчиглу),Буршаг,Буршаг,291,289,341,655,41.89626,47.64102,Daghestan,2223.83544921875,NA
3477,Burshi,Бурши,Lak,NA,Lak,NA,TRUE,Бурши,"Бурши (Борши, Боршилю)",Бурши,Бурши,527,539,413,211,42.03161,47.06349,Daghestan,2270.55444335938,NA
2167,Buskri,Бускри,Dargwa,муиринский,Dargwa,NA,TRUE,Бускри,"Бускры (Бускури, Мускры)",Бускры,Бускри,686,691,702,686,42.17359,47.66673,Daghestan,1369.287109375,NA
3313,But-Kazmalyar,Бутказмаляр,Lezgian,NA,Lezgian,NA,TRUE,NA,NA,Бут-Кент-Казмаляр,Бут-Казмаляр,NA,NA,131,3127,41.705274,48.396665,Daghestan,247.459426879883,NA
3023,Butkent,Буткент,Lezgian,NA,Lezgian,NA,TRUE,Бут-кент (Бута-хюр),Бут Кент (Бута-Хюр),Буткент,Буткент,328,305,205,463,41.60008,48.17998,Daghestan,780.917114257813,NA
1409,Butri,Бутри,Dargwa,усиша-бутринский,Dargwa,NA,TRUE,Бутри,Бутри,Бутри,Бутри,1294,1205,1097,1098,42.07426,47.44048,Daghestan,1560.35900878906,NA
1811,Butulta,Бутулта,Dargwa,сирхинско-тантынский,Dargwa,NA,TRUE,Бутлудда-Махи,Бурлудда-Махи,Будлудта,Бутулта,81,68,70,40,42.07426,47.44048,Daghestan,1560.35900878906,NA
2393,Bukhnag,Бухнаг,Tabasaran,NA,Tabasaran,NA,TRUE,Бахнаг (Бухнаг),"Богнах (Бугнах, Бухнал, Бухнаг)",Бухнаг,Бухнаг,91,93,76,195,41.910587,47.872994,Daghestan,999.487670898438,NA
3481,Bukhty,Бухты,Avar,NA,Avar,NA,TRUE,Бухти,Бухты (Бухтылю),Бухты,Бухты,548,580,726,994,42.240712,46.985633,Daghestan,1802.77905273438,NA
67,Butsra,Буцра,Avar,NA,Avar,NA,TRUE,Буцра,Бурца,Буцра,Буцра,682,675,614,1429,42.58902,46.7677,Daghestan,1599.2099609375,NA
8066,Vavilovo,Вавилово,NA,NA,Lezgian,NA,NA,NA,NA,NA,Вавилово,NA,NA,NA,235,41.98331,48.33065,Daghestan,-7,NA
2121,Varsit,Варсит,Dargwa,кайт.,Dargwa,NA,TRUE,Варсит (Варсита),Варсит (Варсита),Варсит,Варсит,278,266,235,243,41.992062,47.82111,Daghestan,1151.57153320313,NA
3483,Vachi,Вачи,Lak,NA,Lak,NA,TRUE,Вачи (Ваччи),"Вачи (Ватчи, Ваччилю)",Вачи,Вачи,809,827,771,816,42.0722,47.2136,Daghestan,1733.46203613281,NA
1987,Velikent,Великент,North Azerbaijani,NA,North Azerbaijani,NA,TRUE,Вели-кент (Вали-кент),Великент (Вали-Кент),Великент,Великент,967,975,1194,4203,42.1875,48.0647,Daghestan,55.1213874816895,NA
387,Verkhnee Inkhelo,Верхнее Инхело,Karata,карат.,Karata,NA,TRUE,"Инхели-верхнее (Каа-инхили, Тад-Энхели)","Верхнее Энхели (Каа-Энхели, Тад-Энхели)",Инхело Верхн.,Верхнее Инхело,404,300,41,400,42.62035,46.329732,Daghestan,1356.06799316406,NA
397,Verkhnee Inkho,Верхнее Инхо,Avar,NA,Avar,NA,TRUE,Инхо верхнее (Тад-инху),"Верхнее Инхо (Тад-Инхо, Инху)",Инхо Верхн.,Верхнее Инхо,399,423,380,1030,42.70659,46.50415,Daghestan,633.350402832031,NA
8192,Verkhnee Inkhokvari,Верхнее Инхоквари,NA,NA,Xvarshi,Inkhoqwari,NA,NA,NA,NA,Верхнее Инхоквари,NA,NA,NA,146,42.415524,46.065273,Daghestan,2045.45251464844,NA
725,Verkhnee Kazanische,Верхнее Казанище,Kumyk,NA,Kumyk,NA,TRUE,Казанищи верхние,"Казанищи Малые, Верхние (Иогары-Казаниш)",Казанище В.,Верхнее Казанище,2019,1972,2438,6576,42.7306,47.1381,Daghestan,725.3349609375,NA
39,Verkhnie Akhalchi,Верхние Ахалчи,Avar,NA,Avar,NA,TRUE,NA,NA,Тад-Ахалчи,NA,NA,NA,139,NA,42.59911,46.63581,Daghestan,1862.80895996094,NA
1595,Verkhnie Mulebki,Верхние Мулебки,Dargwa,сев.,Dargwa,NA,TRUE,Верхние Мулебки,Верх. Мулебки (Шибах-Мулебки),Мулебки В.,Верхние Мулебки,1421,1419,1157,1446,42.31043,47.51924,Daghestan,1530.20556640625,NA
169,Verkhniy Aradirikh,Верхний Арадирих,Avar,NA,Avar,NA,TRUE,Харадерик верхний (Таса-Харадерик),Верхний Харадырикъ (Таса Х.),В. Харадырых,Верхний Арадирих,276,260,267,495,42.67099,46.60372,Daghestan,1882.21154785156,NA
59,Verkhniy Batlukh,Верхний Батлух,Avar,NA,Avar,NA,TRUE,Бактлук верхний (Таса-Бактлук),Верхний Бахлухъ (Таса),Бактлух верх.,Верхний Батлух,234,239,268,455,42.496276,46.502217,Daghestan,1591.95349121094,NA
701,Verkhniy Dzhengutay,Верхний Дженгутай,Avar,NA,Avar,NA,TRUE,Джентугай верхний (Таса-Жунгут),"Дженгутай Малый, Вехний (Иогары-Дженгутай, по-кумыкски Вехний Дженгутай; Таса-Жунгут, по-аварски Верхний Дженгутай)",Дженгутай В.,Верхний Дженгутай,1856,1756,1479,2145,42.67476,47.23415,Daghestan,742.350402832031,NA
711,Verkhnie Ishkarty,Верхний Ишкарты,Kumyk,NA,Kumyk,NA,TRUE,NA,NA,Ишкарты Вер.,Верхнее Ишкарты,NA,NA,180,377,42.84907,46.95309,Daghestan,848.094116210937,"в Википедии Верхнее, на картах Верхние"
1387,Verkhnie Kamkamakhi,Верхний Камкамахи,Dargwa,цуд.,Dargwa,NA,TRUE,NA,NA,Камга-Махи,Верхний Камкамахи,NA,NA,15,75,42.32265,47.23945,Daghestan,1334.09692382813,"в Википедии Верхний, на картах Верхние"
817,Verkhniy Karanay,Верхний Каранай,Avar,NA,Avar,NA,TRUE,Каранай верхний,Каранай Верхний (Новый),Каранай Верх.,Верхний Каранай,778,850,1161,737,42.8281,46.9072,Daghestan,1230.20056152344,NA
1647,Verkhniy Karshli,Верхний Каршли,Dargwa,сирхинско-тантынский,Dargwa,NA,TRUE,NA,Каршулла-Махи,Каршила-Махи Верхн.,Верхний Каршли,NA,260,140,165,42.05018,47.34231,Daghestan,1860.208984375,NA
3979,Verkhniy Katrukh,Верхний Катрух,Lak,NA,Lak,NA,TRUE,Катрух верхний (Ялу-Чатлух),"Верхний Катрух, Малый (Ялу Чарлух)",Верх. Катрух,Верхний Катрух,182,207,261,425,41.7468,47.22355,Daghestan,2129.037109375,NA
1011,Verkhniy Kolob,Верхний Колоб,Avar,NA,Avar,NA,TRUE,NA,NA,Керта-Коло,Верхний Колоб,NA,NA,159,81,42.42614,46.6579,Daghestan,1733.33654785156,NA
1737,Verkhnie Ubekimakhi,Верхний Убекимахи,Dargwa,цуд.,Dargwa,NA,TRUE,Обеки-Махи (Убеки-Махи),"Обеки-Махи (Убеки-Махи, Косолабек-Махи)",Убеки-Махи Верхн.,Верхний Убекимахи,712,644,411,842,42.36823,47.24298,Daghestan,1230.01159667969,"в Википедии Верхний, на картах Верхние"
1661,Verkhnie Chiamakhi,Верхний Чиамахи,Dargwa,сирхинско-тантынский,Dargwa,NA,TRUE,Чаха-Махи,Чиха-Махи,Чиба-Чигалицы,Верхний Чиамахи,172,170,115,78,42.02996,47.38803,Daghestan,1860.20874023438,NA
2427,Vechrik,Вечрик,Tabasaran,NA,Tabasaran,NA,TRUE,Вичрик,Вичриг,Вичрик,Вечрик,117,122,113,288,41.9171,47.96184,Daghestan,1021.34313964844,NA
1411,Vikri,Викри,Dargwa,муиринский,Dargwa,NA,TRUE,Выхри,"Выхри (Викра, Икри)",Викри,Викри,925,909,834,22,42.20612,47.679702,Daghestan,1226.16125488281,NA
3465,Viraty,Вираты,Lak,NA,Lak,NA,TRUE,Вирати,"Вирати (Вираты, Виратилю)",Вираты,Вираты,143,159,129,50,42.15675,47.20107,Daghestan,1910.84252929687,NA
4765,Vitsiyatl',Вициятли,Tsez,цезский,Tsez,NA,TRUE,Вициатль (Унции),Вициятль,Вициятль,Вициятль,69,116,49,178,42.197434,45.888164,Daghestan,1912.27941894531,NA
4017,Vrush,Вруш,Lezgian,NA,Rutul,NA,FALSE,Уруш,Уруш,Уруж,Вруш,187,181,236,29,41.646787,47.310094,Daghestan,1818.45361328125,NA
4235,Gagar,Гагар,Avar,NA,Avar,NA,TRUE,"Гагар (Агар, Гагаб)","Гагаръ (Агагаръ, Гагабъ)",Гагор,Гагар,247,248,181,659,41.999252,46.592744,Daghestan,2145.80590820312,NA
267,Gagatli,Гагатли,Andi,верхне-андийски,Andi,NA,TRUE,Гагатль,Гагатль (Гагудиралъ),Гагатль,Гагатли,1360,1500,1981,3543,42.800361,46.292645,Daghestan,1713.54443359375,NA
487,Gadaychi,Гадайчи,Tindi,NA,Tindi,NA,TRUE,NA,NA,Гадачи,Гадайчи,NA,NA,73,210,42.470059,46.070951,Daghestan,1052.09020996094,NA
275,Gadari,Гадари,Avar,NA,Avar,NA,TRUE,Гадари (Кадари),Гадари,Гадари,Гадари,359,355,306,254,42.807303,46.621237,Daghestan,1272.22509765625,NA
277,Gadiri,Гадири,Chamalal,NA,Chamalal,NA,TRUE,Гадири,"Гадыри (Хадыри, Гади)",Гадири,Гадири,481,547,522,418,42.566265,46.065746,Daghestan,1965.58154296875,NA
2213,Gaziya,Газия,Dargwa,кайт.,Dargwa,NA,TRUE,Газiя,Газiя,Газия,Газия,171,166,90,386,42.085935,47.817633,Daghestan,516.368713378906,NA
4691,Gakko,Гакко,Avar,NA,Chamalal,NA,FALSE,Гако (Хако),"Гако (Хако, Гаку)",Гако,Гакко,448,480,368,320,42.47024,45.882,Daghestan,1624.90173339844,NA
4713,Galatli,Галатли,Tsez,цезский,Tsez,NA,TRUE,NA,Кутатли (Кутатотль),Кулутлы,Галатли,NA,194,48,199,42.288201,45.894106,Daghestan,2029.05493164062,NA
3631,Gamiyakh,Гамиях,Lak,NA,Avar,NA,FALSE,Гомiах (Гамiек),"Гомiях (Гомiах, Гамiехлю, Гамiяши)",Гамиях,NA,407,411,291,NA,43.2075,46.4886,Daghestan,216.658294677734,NA
1279,Gamsutl',Гамсутль,Avar,NA,Avar,NA,TRUE,Гамсутль,Гамсутль (Гансутль),Гамсутль,Гамсутль,204,222,227,6,42.301972,46.996315,Daghestan,1646.52697753906,NA
1313,Ganderamakhi,Гандарамахи,Dargwa,сев.,Dargwa,NA,TRUE,NA,NA,Гандра-Махи,Гандарамахи,NA,NA,78,186,42.261093,47.333465,Daghestan,1464.74450683594,в Википедии и на картах Гандарамахи
1417,Gapshima,Гапшима,Dargwa,гапш.,Dargwa,NA,TRUE,Гапшима,Гапшима,Гапшима,Гапшима,741,727,656,1706,42.2122,47.3261,Daghestan,1603.01037597656,NA
4207,Garakolob,Гараколоб,Avar,NA,Avar,NA,TRUE,Гара-Коло,Гара-Коло (Гаракулабъ),Кара-Коло,Гараколоб,91,98,60,246,42.048887,46.455015,Daghestan,2067.20190429687,NA
3993,Garakh,Гарах,Lezgian,NA,Lezgian,NA,TRUE,NA,NA,Гарах,Гарах,NA,NA,308,362,41.48148,48.04608,Daghestan,785.95166015625,NA
3165,Garig,Гарик,Tabasaran,NA,Tabasaran,NA,TRUE,"Гериг (Гариг, Гириг)","Герик (Гериг, Гарик, Гирик)",Гериг,Гариг,88,89,103,37,41.8766,47.88498,Daghestan,1111.50830078125,в исходном файле Гариг
2399,Gasikh,Гасик,Tabasaran,NA,Tabasaran,NA,TRUE,Гасиг,Гасих (Гасик),Гасик,Гасик,160,164,173,404,41.92398,47.8847,Daghestan,1148.41589355469,в википедии и на картах Гасик
73,Gatsalukh,Гацалух,Avar,NA,Avar,NA,TRUE,Гоцалух (Ацалух),Гоцалухъ (Ацалухъ),Гацалух,Гацалух,340,364,363,473,42.59298,46.64949,Daghestan,1871.66149902344,NA
279,Gachitli,Гачитли,Chamalal,NA,Chamalal,NA,TRUE,Гачитль,Гачитль,Гачитли,Гачитли,121,117,75,128,42.551361,46.088803,Daghestan,1763.30981445313,NA
2103,Gasha,Гаша,Kumyk,NA,Kumyk,NA,TRUE,Гашiя (Гаша),"Гашия (Гаша, Газия)",Гашия,Гаша,174,169,81,54,42.33592,47.83067,Daghestan,353.794708251953,NA
4243,Gvedysh,Гведыш,Avar,NA,Avar,NA,TRUE,Гведиш (Гундуш),Гведишь (Ги(у)ндушъ),Гведыш,Гведыш,202,200,99,766,42.13591,46.41437,Daghestan,1853.4951171875,NA
493,Gvanachi,Гвиначи,Tindi,NA,Tindi,NA,TRUE,NA,NA,Гуначи,Гвиначи,NA,NA,141,45,42.4606005,46.1622609,Daghestan,1965.69189453125,в Википедии и на картах Гвиначи
4059,Gdym,Гдым,Lezgian,NA,Lezgian,NA,TRUE,Гдым (Гедум),Гдым (Гедум),Гдым,Гдым,610,641,180,388,41.308839999999996,47.4668,Daghestan,2026.66284179687,NA
3935,Gdynk,Гдынк,Lezgian,NA,Lezgian,NA,TRUE,Гдунг (Котунк),"Гдунг (Котунк, Кдут, Гедуник)",Гтынч,Гдынк,364,365,301,398,41.457263,47.657293,Daghestan,1590.71643066406,NA
1425,Geba,Геба,Dargwa,усиша-бутринский,Dargwa,NA,TRUE,"Гиба (Шиба, Шевкли)",Гиба (Шиба),Гиба,Геба,573,540,536,737,42.21527,47.39266,Daghestan,1633.94787597656,NA
4189,Gebguda,Гебгуда,Avar,NA,Avar,NA,TRUE,Гебгута,"Гергута (Гегуда, Гегода)",Гебгуда,Гебгуда,42,28,15,49,42.190026,46.354817,Daghestan,1754.84094238281,NA
4189,Gebguda,Гебгуда,Avar,NA,Avar,NA,TRUE,Гегута (Гегода),"Гергута (Гегуда, Гегода)",Гебгуда,Гебгуда,74,28,15,49,42.190026,46.354817,Daghestan,1754.84094238281,NA
1991,Gedzhukh,Геджух,Dargwa,??,Dargwa,NA,TRUE,NA,NA,Геджух,Геджух,NA,NA,62,6829,42.1247,48.0661,Daghestan,90.5159072875977,NA
667,Gelli,Гели,Kumyk,NA,Kumyk,NA,TRUE,Гелли,Гелли,Гелла,Гели,2312,2390,1526,2796,42.7267,47.4014,Daghestan,449.041198730469,NA
4077,Gel'mets,Гельмец,Tsakhur,NA,Tsakhur,NA,TRUE,Гильмиц (Гельмиц),Гельмец (Гильмиц),Гелмец,Гельмец,358,368,403,611,41.62466,47.17889,Daghestan,1745.84985351563,NA
8209,Genazokh,Геназох,NA,NA,Tsez,NA,NA,NA,NA,NA,Геназох,NA,NA,NA,3,42.23806,46.05306,Daghestan,1756.38781738281,NA
4245,Gendukh,Гендух,Avar,NA,Avar,NA,TRUE,Гинлух,Гиндухъ (Индухъ),Гиндух,Гендух,81,85,28,284,42.13476,46.403084,Daghestan,1751.52648925781,NA
4257,Genekolob,Генеколоб,Avar,NA,Avar,NA,TRUE,Гени-Коло,Гени-Коло (Геникулабъ),Гене-Коло,Генеколоб,215,229,236,750,41.916992,46.600199,Daghestan,2052.53295898437,NA
77,Genichutl',Геничутль,Avar,NA,Avar,NA,TRUE,Геничутль,Геничутль,Гиничутль,Геничутль,426,457,261,315,42.56455,46.73959,Daghestan,1772.45178222656,NA
4759,Geniyatl',Гениятль,Tsez,цезский,Tsez,NA,TRUE,Гениатль,Гениятль (Генитль),Гениатль,Гениятль,159,140,68,172,42.23828,46.035044,Daghestan,1671.87939453125,NA
1227,Genta,Гента,Avar,NA,Avar,NA,TRUE,Гинта,Гинта (Хинда),Энта,Гента,547,521,559,583,42.37001,46.56099,Daghestan,1702.54846191406,NA
4705,Genukh,Генух,Hinuq,NA,Hinuq,NA,TRUE,Гинух (Игинух),"Гинухъ (Гинухо, Инухъ)",Гинух,Генух,35,148,150,543,42.1764,45.98646,Daghestan,1990.18469238281,NA
945,Gergebil',Гергебиль,Avar,NA,Avar,NA,TRUE,Гергебиль (Хергеб),Гергебиль (Хергебъ),Гергебель,Гергебиль,1193,1310,1489,5196,42.5047,47.0661,Daghestan,729.883544921875,NA
9000,Germenchik,Герменчик,Nogai,NA,Chechen,NA,FALSE,Тюрки-Ногай (Герменчик),Герменчик,–,NA,2556,2348,NA,NA,43.5403,46.7256,Daghestan,1.30183970928192,NA
8191,Gigatli-Urukh,Гигатли-Урух,NA,NA,Chamalal,NA,NA,NA,NA,NA,Гигатли-Урух,NA,NA,NA,267,42.590934,46.142589,Daghestan,848.708618164063,NA
331,Gigatl',Гигатль,Chamalal,NA,Chamalal,NA,TRUE,Гигатли (Игатли),Гигатль (Гигатли),Гигатли,Гигатль,824,496,767,1349,42.58136,46.0964,Daghestan,1782.37231445313,NA
295,Gigikh,Гигих,Chamalal,NA,Chamalal,NA,TRUE,NA,NA,Жилитль,Гигих,NA,NA,5,103,42.532529,46.101767,Daghestan,1316.25646972656,NA
4139,Gidatli,Гидатли,Avar,NA,Avar,NA,TRUE,Гидатль,Гидатль,Гидатль,Гидатли,47,52,46,0,42.266327,46.374506,Daghestan,1830.7548828125,NA
1151,Gidib,Гидиб,Avar,NA,Avar,NA,TRUE,Гидиб,Гидиб (Гадбал),Гедиб,Гидиб,139,145,316,61,42.22942,46.80621,Daghestan,1776.49340820313,NA
947,Gilib,Гилиб,Avar,NA,Avar,NA,TRUE,Гилиб (Гили),Гиллиб (Гиллихи),Гилиб,Гилиб,462,463,438,642,42.1169,46.7761,Daghestan,1775.21081542969,NA
3041,Gil'yar,Гильяр,Lezgian,NA,Lezgian,NA,TRUE,Гильяр,Гильяр,Гильяр,Гильяр,505,511,632,2023,41.559978,48.256089,Daghestan,483.142242431641,NA
341,Gimerso,Гимерсо,Bagvalal,NA,Bagvalal,NA,TRUE,Гимерси (Гиметлян),"Гимерси (Гимерсу, Химерсу, Гимцалъ)",Гимерсо,Гимерсо,304,253,285,211,42.561489,46.227545,Daghestan,1678.71472167969,NA
4125,Gimry,Гиндиб,Avar,NA,Avar,NA,TRUE,Гиндиб (Хинда),"Гиндибъ (Гендибъ, Хинда)",Гинда,Гиндиб,269,297,173,305,42.757219,46.838739,Daghestan,464.00830078125,NA
821,Gindib,Гинта,Avar,NA,Avar,NA,TRUE,NA,NA,Гинта,NA,NA,NA,78,NA,42.11296,46.50397,Daghestan,2013.51049804687,NA
821,Ginta,Гинта,Avar,NA,Dargwa,NA,FALSE,NA,NA,Гинта,NA,NA,NA,78,NA,42.2042,47.4186,Daghestan,1588.97143554688,NA
1427,Gindib,Гинта,Dargwa,усиша-бутринский,Avar,NA,FALSE,Гинта (Хунтали),"Гинта (Хинта, Хунтали)",Гинта,Гинта,1233,1208,1073,1535,42.11296,46.50397,Daghestan,2013.51049804687,NA
1427,Ginta,Гинта,Dargwa,усиша-бутринский,Dargwa,NA,TRUE,Гинта (Хунтали),"Гинта (Хинта, Хунтали)",Гинта,Гинта,1233,1208,1073,1535,42.2042,47.4186,Daghestan,1588.97143554688,NA
2307,Gisik,Гисик,Tabasaran,NA,Tabasaran,NA,TRUE,Кисик верхний (Заан-Киник),"Кисик Верхний (Гасик Верхний, Заан Кисик)",Кисик Верх.,Гисик,67,73,82,293,41.94475,47.91451,Daghestan,912.670776367188,Кисик Верхний (объед. в одно село?)
2307,Gisik,Гисик,Tabasaran,NA,Tabasaran,NA,TRUE,Кисик верхний (Заан-Киник),"Кисик Верхний (Гасик Верхний, Заан Кисик)",Кисик Верх.,Гисик,67,73,82,293,41.94475,47.91451,Daghestan,912.670776367188,Кисик Нижний (объед. в одно село?)
2309,Gisik,Гисик,Tabasaran,NA,Tabasaran,NA,TRUE,Кисик нижний (Аскан-Кисик),"Кисик Нижний (Гасик Нижний, Аскан Кисик)",Кисик Нижн.,NA,95,100,85,NA,41.94475,47.91451,Daghestan,912.670776367188,Кисик Верхний (объед. в одно село?)
2309,Gisik,Гисик,Tabasaran,NA,Tabasaran,NA,TRUE,Кисик нижний (Аскан-Кисик),"Кисик Нижний (Гасик Нижний, Аскан Кисик)",Кисик Нижн.,NA,95,100,85,NA,41.94475,47.91451,Daghestan,912.670776367188,Кисик Нижний (объед. в одно село?)
1681,Giyagaramakhi,Гиягарамахи,Dargwa,сирхинско-тантынский,Dargwa,NA,TRUE,NA,Холагия-Махи,Хола-Гира-Махи,Гиягарамахи,NA,71,54,73,42.08381,47.37841,Daghestan,2002.16955566406,NA
3901,Glavnyy-Kut,Главный Кут,Russian,NA,Lak,NA,FALSE,NA,NA,Главный Кут.,NA,NA,NA,102,NA,43.488244,47.443771,Daghestan,-23,NA
3045,Goa,Гоа,Aghul,агульский собственно,Aghul,NA,TRUE,Гоа,"Гоа (Гуэ, Уга)",Гоа,Гоа,208,215,266,476,41.753585,47.703213,Daghestan,1540.94604492188,NA
949,Goab,Гоаб,Avar,NA,Avar,NA,TRUE,Гоаб (Куа),"Гоаб (Гоа, Гоабго)",Гоаб,Гоаб,274,269,332,234,42.097185,46.738407,Daghestan,2287.03784179687,NA
957,Gogotl',Гоготль,Avar,NA,Avar,NA,TRUE,Гоготль,Гоготль,Гогатль,Гоготль,450,482,436,466,42.45481,46.76547,Daghestan,1407.38830566406,NA
343,Godoberi,Годобери,Godoberi,NA,Godoberi,NA,TRUE,Годобери (Геди),Годобери,Годебери Верх.,Годобери,887,1147,743,3050,42.6258,46.1189,Daghestan,1438.76196289063,Ботлихский район
81,Golotl',Голотль,Avar,NA,Avar,NA,TRUE,Голотль,Голотль,Голотль,Голотль,714,735,700,1493,42.485962,46.735698,Daghestan,803.010375976563,NA
959,Gonoda,Гонода,Avar,NA,Avar,NA,TRUE,Гонода,Гонода (Гунада),Гонода,Гонода,599,637,639,1415,42.4697,46.7892,Daghestan,1281.41650390625,NA
83,Gonokh,Гонох,Avar,NA,Avar,NA,TRUE,Гонох,Гонохъ,Гонох,Гонох,174,172,196,373,42.56163,46.6896,Daghestan,1709.26733398438,NA
1267,Gontlob,Гонтлоб,Avar,NA,Avar,NA,TRUE,Гонтлоб (Гонтло),Гонтлоб (Гонтло),Гонтлоб,Гонтлоб,64,66,59,33,42.280673,46.726468,Daghestan,1838.49987792969,NA
1009,Goor,Гоор,Avar,NA,Avar,NA,TRUE,Гоор (Гори),Гооръ,Гоор,Гоор,932,896,813,809,42.43339,46.56927,Daghestan,1554.23571777344,NA
1021,Goor-Khindakh,Гоор-Хиндах,Avar,NA,Avar,NA,TRUE,NA,NA,Хиндах,Гоор-Хиндах,NA,NA,103,267,42.449273,46.575312,Daghestan,1042.85363769531,NA
87,Gortkolo,Гортколо,Avar,NA,Avar,NA,TRUE,Гортль-коло,Гортль Коло,Гортколо,Гортколо,270,272,231,241,42.576655,46.63945,Daghestan,1791.60681152344,NA
4261,Gortnob,Гортноб,Avar,NA,Avar,NA,TRUE,Гортль-Нуб,Гортль Нубъ (Гортнобъ),Гортиоб,Гортноб,82,87,73,197,41.962665,46.525604,Daghestan,1970.58435058594,NA
93,Gotsatl' Bol'shoy,Гоцатль Большой,Avar,NA,Avar,NA,TRUE,Гоцатль,"Гоцатль (Старый, Большой, Гортль Гоцатль, Малый, Новый Гоцатль, Таса Гоцатль)",Гоцатль Бол.,Гоцатль Большой,1028,1089,935,2189,42.51862,46.88262,Daghestan,933.886352539063,NA
95,Gotsatl' Malyy,Гоцатль Малый,Avar,NA,Avar,NA,TRUE,NA,NA,Гоцатль Мал.,Гоцатль Малый,NA,NA,224,581,42.5041,46.88829,Daghestan,863.846008300781,NA
123,Gotsob,Гоцоб,Avar,NA,Avar,NA,TRUE,Гецо (Хецо),Гоцо,Гоцо,Гоцоб,168,160,159,164,42.58963,46.86901,Daghestan,1867.50061035156,NA
961,Gochada,Гочада,Avar,NA,Avar,NA,TRUE,Гачада (Хачада),Гачада,Гочада,Гочада,622,661,459,147,42.272626,46.765272,Daghestan,1557.75549316406,NA
973,Gochob,Гочоб,Avar,NA,Avar,NA,TRUE,Гочоб,Гочоб,Гочоб,Гочоб,688,765,702,476,42.2375,46.6642,Daghestan,2019.77404785156,NA
3717,Gubden,Губден,Dargwa,сев.,Dargwa,NA,TRUE,Губден,Губдень,Губден,Губден,7111,6991,6102,8624,42.5658,47.5658,Daghestan,592.828186035156,NA
2271,Guvlig,Гувлиг,Tabasaran,NA,Tabasaran,NA,TRUE,Кувлиг,"Кувлиг (Кувлик, Куглиг)",Кувлик,Гувлиг,141,149,122,487,41.91824,47.85213,Daghestan,1191.63659667969,NA
1457,Guzbaya,Гузбая,Dargwa,сирхинско-тантынский,Dargwa,NA,TRUE,NA,NA,Гузбая,Гузбая,NA,NA,38,11,42.04744,47.51385,Daghestan,1796.40734863281,NA
3507,Guymi,Гуйми,Lak,NA,Lak,NA,TRUE,Гойми (Хуйми),"Гойми (Хуми, Гуймилю)",Гойми,Гуйми,396,448,311,70,42.230357,47.19589,Daghestan,1659.33459472656,NA
1435,Guladty,Гуладты,Dargwa,сирхинско-тантынский,Dargwa,NA,TRUE,Голедты,Голадты,Гуладты,Гуладты,726,699,638,663,42.11523,47.45074,Daghestan,1505.74609375,NA
1431,Guladtymakhi,Гуладтымахи,Dargwa,цуд.,Dargwa,NA,TRUE,Гулаты-Махи,Гуладты-Махи (Го-Махи),Гулатды-Махи,Гуладтымахи,507,491,472,417,42.34823,47.23927,Daghestan,1542.89306640625,NA
1895,Gulebki,Гулебки,Dargwa,сирхинско-тантынский,Dargwa,NA,TRUE,Гулебки,Гулебки,Гулебки,Гулебки,259,255,209,386,42.11181,47.39688,Daghestan,1574.15942382812,NA
8091,Gulli,Гулли,NA,NA,Dargwa,NA,NA,NA,NA,NA,Гулли,NA,NA,NA,2058,42.22977,47.76214,Daghestan,484.492248535156,NA
2327,Gul'dy,Гульды,Dargwa,кайт.,Dargwa,NA,TRUE,Гулди,"Гулди (Гюльди, Гулдили)",Гульди,Гульды,173,167,151,145,42.07113,47.68936,Daghestan,1322.77770996094,NA
2265,Gumi,Гуми,Tabasaran,NA,Tabasaran,NA,TRUE,Куми (Гуми),Куми (Гуми),Куми,Гуми,248,256,251,261,41.894319,47.868304,Daghestan,1087.39294433594,NA
1315,Gumramakhi,Гумрамахи,Dargwa,сев.,Dargwa,NA,TRUE,NA,NA,Гумра-Махи,Гумрамахи,NA,NA,151,642,42.25101,47.35105,Daghestan,1384.79638671875,NA
2175,Gunakari,Гунакари,Dargwa,муиринский,Dargwa,NA,TRUE,Унахари (Гуна-кари),"Унухари (Гуна-Кари, Унукара, Унагкари)",Унакари,Гунакари,271,275,201,371,42.17776,47.69262,Daghestan,1168.72839355469,NA
1247,Gunib,Гуниб,Avar,NA,Avar,NA,TRUE,NA,NA,Гуниб,Гуниб,NA,NA,215,2271,42.388232,46.962258,Daghestan,1214.30200195313,NA
1683,Gunnamakhi,Гуннамахи,Dargwa,сирхинско-тантынский,Dargwa,NA,TRUE,NA,Кунна-Махи,Хуния-Махи,Гуннамахи,NA,65,27,59,42.04729,47.37328,Daghestan,1704.51977539063,NA
963,Gunukh,Гунух,Avar,NA,Avar,NA,TRUE,Гонок,Гонохъ (Гонокъ),Гонох,Гунух,326,331,317,87,42.28043,46.76307,Daghestan,1780.0693359375,NA
3731,Gurbuki,Гурбуки,Dargwa,сев.,Dargwa,NA,TRUE,NA,NA,Гурбуки,Гурбуки,NA,NA,13,5321,42.611506,47.591942,Daghestan,432.416229248047,NA
1713,Gurgumakhi,Гургумахи,Dargwa,цуд.,Dargwa,NA,TRUE,NA,Урку-Махи,Хургу,Гургумахи,NA,176,76,541,42.36056,47.19222,Daghestan,1429.4306640625,NA
2293,Gurik,Гурик,Tabasaran,NA,Tabasaran,NA,TRUE,Курих (Курик),"Курих (Курик, Кюрак, Кюрык)",Курих,Гурик,358,266,412,804,41.962788,47.919474,Daghestan,733.332458496094,NA
4707,Gutatli,Гутатли,Tsez,цезский,Tsez,NA,TRUE,Гутох (Кутотль),NA,Гутатль,Гутатли,160,NA,132,363,42.207019,45.936713,Daghestan,1922.36535644531,NA
3407,Gyukhryag,Гюхряг,Tabasaran,NA,Tabasaran,NA,TRUE,Гогнак (Гугнак),"Гугнаг (Гегнах, Кюгнех)",Гугнох,Гюхряг,201,172,91,1456,41.854055,48.172785,Daghestan,193.254852294922,NA
1167,Dagbash,Дагбаш,Avar,NA,Avar,NA,TRUE,Ратлу-Ахвах (Ахуак),"Ахвах (Ахуакъ, Ратлу-Ахвакъ)",Ахвах,Дагбаш,426,415,441,264,42.380347,46.351961,Daghestan,2015.060546875,NA
2299,Dagni,Дагни,Tabasaran,NA,Tabasaran,NA,TRUE,Дагни,Дагни (Дагуна),Дагни,Дагни,160,160,166,313,41.931594,47.911846,Daghestan,835.614501953125,NA
1067,Dadulazda,Дадулазда,Avar,NA,Avar,NA,TRUE,NA,NA,Дабулада,Дадулазда,NA,NA,66,26,42.4189,46.80373,Daghestan,1259.15344238281,NA
2329,Daknisa,Дакниса,Dargwa,кайт.,Dargwa,NA,TRUE,Дахниса (Дагиниса),"Дахниса (Дагниса, Дагнисали)",Дакнисе,Дакниса,200,201,208,436,42.08758,47.72711,Daghestan,876.819580078125,NA
1545,Damkulakada,Дамкулакада,Dargwa,сев.,Dargwa,NA,TRUE,NA,Дашкалакада,Дамкула-Кода,Дамкулакада,NA,143,97,48,42.430252,47.467675,Daghestan,1224.33154296875,NA
359,Danukh,Данух,Avar,NA,Chechen,NA,FALSE,Данух,Данухъ,Данух,Данух,274,220,390,810,42.84282,46.6275,Daghestan,1691.798828125,NA
1159,Darada,Дарада,Avar,NA,Avar,NA,TRUE,NA,NA,Дарада,Дарада,NA,NA,216,217,42.465606,46.936573,Daghestan,1513.75939941406,NA
2005,Darvag,Дарваг,North Azerbaijani,NA,North Azerbaijani,NA,TRUE,Дарваг,Дарваг,Дарваг,Дарваг,961,968,1220,2889,42.022285,48.065912,Daghestan,355.026885986328,NA
3121,Darkush-Kazmalyar,Даркушказмаляр,Lezgian,NA,Lezgian,NA,TRUE,NA,NA,Даркуш-Казм.,Даркуш-Казмаляр,NA,NA,132,2805,41.80608,48.38985,Daghestan,96.4831390380859,NA
139,Datuna,Датуна,Avar,NA,Avar,NA,TRUE,"Датуната (Датун, Малиданаха)","Датунъ, Датуната, Малиданака",Датун,Датуна,67,80,74,179,42.47357,46.64364,Daghestan,856.761596679688,NA
3779,Dakhadaevka,Дахадаевка,Kumyk,NA,Kumyk,NA,TRUE,NA,NA,Ахундовка,Дахадаевка,NA,NA,166,284,43.1069,47.44029,Daghestan,-24.0018711090088,NA
1441,Deybuk,Дейбук,Dargwa,муиринский,Dargwa,NA,TRUE,Дийбук (Дубук),"Дийбукъ (Дибукъ, Дубукъ)",Дейбук,Дейбук,931,980,991,434,42.20532,47.51996,Daghestan,1538.88464355469,NA
2007,Delichoban,Деличобан,North Azerbaijani,NA,North Azerbaijani,NA,TRUE,Деличобан,Деличобан (Деличибок),Деличубан,Деличобан,521,487,422,2216,42.19877,48.09467,Daghestan,19.7854690551758,NA
3951,Dzhaba,Джаба,Lezgian,NA,Lezgian,NA,TRUE,Джаба (Чапе),Джаба (Чапе),Джаба,Джаба,1504,1792,806,703,41.424175,47.775397,Daghestan,1738.31530761719,NA
2149,Dzhavankent,Джаванкент,Kumyk,NA,Kumyk,NA,TRUE,Джаван-кент,Джаван-Кент,Джаван-Кент,Джаванкент,1168,1177,747,1013,42.26265,47.80983,Daghestan,358.448669433594,NA
2155,Dzhavgat,Джавгат,Dargwa,кайт.,Dargwa,NA,TRUE,Джовгат (Джаугат),"Джавгат (Джаугат, Джевгат)",Джавгат,Джавгат,466,470,579,2185,42.0506,47.9375,Daghestan,365.503295898437,NA
17,Dzhalaturi,Джалатури,Avar,NA,Avar,NA,TRUE,Джалатлури (Жалатлуру),Джалатрури (Жалатруи),Джалатлури,Джалатури,169,190,160,82,42.631847,46.567028,Daghestan,1732.36254882812,NA
2021,Dzhalgan,Джалган,North Azerbaijani,NA,North Azerbaijani,NA,TRUE,Джалга,Джалган (Джалга),Джалган,Джалган,271,272,442,724,42.02454,48.26224,Daghestan,527.816833496094,NA
1445,Dzhangamakhi,Джангамахи,Dargwa,сев.,Dargwa,NA,TRUE,Джанга-Махи,Джанга-Махи (Халакат),Джанга-Махи,Джангамахи,783,259,301,698,42.44335,47.38111,Daghestan,1295.265625,NA
2023,Dzhemikent,Джемикент,North Azerbaijani,NA,North Azerbaijani,NA,TRUE,Джеми-кент,Джими-Кент (Джеми-Кент),Джемикент,Джемикент,687,647,655,2555,42.23575,48.04114,Daghestan,33.7446327209473,NA
3329,Dzhepel',Джепель,Lezgian,NA,Lezgian,NA,TRUE,Джебель (Ширванар),"Джабель (Джебель, Джабек, Ширванар)",Джабель,Джепель,123,106,195,634,41.54977,48.21947,Daghestan,543.11279296875,NA
2153,Dzhibakhni,Джибахни,Dargwa,кайт.,Dargwa,NA,TRUE,Джибагни,"Джибагни (Джебагни, Джабагни)",Джибахни,Джибахни,735,740,567,1200,42.06051,47.90847,Daghestan,409.109252929688,NA
2255,Dzhigiya,Джигия,Dargwa,кайт.,Dargwa,NA,TRUE,Джигiа,Джигиа (Джигия),Джигия,Джигия,116,120,129,289,42.06139,47.79597,Daghestan,621.141418457031,NA
4013,Dzhilikhur,Джилихур,Lezgian,NA,Rutul,NA,FALSE,NA,NA,Жилихюр,Джилихур,NA,NA,251,742,41.65545,47.26768,Daghestan,1590.79418945313,NA
2217,Dzhinabi,Джинаби,Dargwa,кайт.,Dargwa,NA,TRUE,Джинаби,Джинаби (Дженаби),Джинаби,Джинаби,385,342,338,706,42.070864,47.860318,Daghestan,613.606872558594,NA
4005,Dzhinykh,Джиных,Tsakhur,NA,Tsakhur,NA,TRUE,Джиних (Джинег),Джиних (Джинег),Жиних,Джиных,537,532,262,277,41.67245,47.04479,Daghestan,1797.17175292969,NA
2331,Dzhirabachi,Джирабачи,Dargwa,кайт.,Dargwa,NA,TRUE,Джинабаджи (Джирабаджи),"Джинабаджи (Джирабаджи, Джирибачни)",Джирабажи,Джирабачи,470,470,451,531,42.09091,47.73513,Daghestan,939.80908203125,NA
2429,Dzhugdil',Джугдиль,Tabasaran,NA,Tabasaran,NA,TRUE,Джугдиль (Джогдиль),Джугдиль (Джогдиль),Джуглил,Джугдиль,272,271,325,917,41.919222,47.979531,Daghestan,798.133666992188,NA
3303,Dzhuli,Джули,Tabasaran,NA,Tabasaran,NA,TRUE,Джули (Жули),Джули (Усули),Джули,Джули,358,390,386,631,41.8822,47.85399,Daghestan,1153.94470214844,NA
2301,Dzhul'dzhag,Джульджаг,Tabasaran,NA,Tabasaran,NA,TRUE,Джоруджаг (Джолджаг),Джорджал (Джулдаг),Джулджак,Джульджаг,180,180,163,715,41.95485,47.88933,Daghestan,998.5048828125,NA
2303,Dzhul'dzhinif,Джульджиниф,Tabasaran,NA,Tabasaran,NA,TRUE,Джуруджинив (Джуржунив),"Джурджиниф (Двурджинив, Джулджиниф)",Джулжиниф,Джульджиниф,70,62,68,197,41.957235,47.912939,Daghestan,765.842346191406,NA
2379,Dzhurmachi,Джурмачи,Dargwa,муиринский,Dargwa,NA,TRUE,Журмачи (Зурмачи),"Журмачи (Зурмачи, Гурмачи)",Журмачи,Джурмачи,223,231,256,152,42.09049,47.69572,Daghestan,951.664489746094,NA
1451,Dzilebki,Дзилебки,Dargwa,сирхинско-тантынский,Dargwa,NA,TRUE,Дзилебки,Дзилебки,Дзилебки,Дзилебки,406,398,481,714,42.04989,47.55693,Daghestan,1645.35473632813,NA
2375,Dibgalik,Дибгалик,Dargwa,муиринский,Dargwa,NA,TRUE,Дибгелик,"Дибгалик (Дибгелик, Деблюк, Дебгали, Девгали)",Дибгалик,Дибгалик,359,367,357,557,42.120363,47.652521,Daghestan,1065.45202636719,NA
2165,Dibgashi,Дибгаши,Dargwa,муиринский,Dargwa,NA,TRUE,Дибга-ша (Динга-ша),"Дибга-ша (Дивга-ша, Девгашили)",Дибгаша,Дибгаши,532,527,450,1130,42.1617,47.6944,Daghestan,1104.78015136719,NA
1693,Dingo,Динго,Dargwa,цуд.,Dargwa,NA,TRUE,NA,NA,Денгубе,Динго,NA,NA,22,0,42.35347,47.18138,Daghestan,1049.79821777344,NA
1481,Ditunshimakhi,Дитуншимахи,Dargwa,сев.,Dargwa,NA,TRUE,Детунша (Дитунша),Детунша (Дитунша),Дитунши-Махи,Дитуншимахи,133,133,152,486,42.381665,47.289692,Daghestan,1410.48376464844,NA
677,Dorgeli,Доргели,Kumyk,NA,Kumyk,NA,TRUE,Дургали (Дургели),Дургели (Дургали),Дургели,Доргели,4291,4620,3130,5781,42.66556,47.29667,Daghestan,667.396423339844,NA
951,Doronub,Доронуб,Avar,NA,Avar,NA,TRUE,Дарану (Дарануб),Дарануб,Доронуб,Доронуб,123,131,111,150,42.124689,46.809427,Daghestan,1876.57202148438,NA
8095,Druzhba,Дружба,NA,NA,Dargwa,NA,NA,NA,NA,NA,Дружба,NA,NA,NA,3675,42.2419,48.0042,Daghestan,65.0423812866211,42.2419 48.0042 Dargwa
1455,Duakar,Дуакар,Dargwa,сирхинско-тантынский,Dargwa,NA,TRUE,Дуаккар,"Дуаккар (Диакхор, Дуук)",Дуакар,Дуакар,276,263,291,248,42.064159,47.460081,Daghestan,1637.55126953125,NA
1323,Dubrimakhi,Дубримахи,Dargwa,сев.,Dargwa,NA,TRUE,Дубри-Махи,Дубри-Махи,Дубри-Махи,Дубримахи,943,999,256,692,42.274418,47.285133,Daghestan,1503.74438476563,NA
3057,Duldug,Дулдуг,Aghul,агульский собственно,Aghul,NA,TRUE,Дулдуг,Дулдуг (Дюльдух),Дулдуг,Дулдуг,371,386,380,544,41.76833,47.67438,Daghestan,1560.97912597656,NA
705,Durangi,Дуранги,Avar,NA,Avar,NA,TRUE,Дуранги,Дуранги,Дуранги,Дуранги,329,342,345,553,42.63571,47.22366,Daghestan,1040.05541992188,NA
2257,Duregi,Дуреги,Dargwa,кайт.,Dargwa,NA,TRUE,Дурья,Дурья,Дуреги,Дуреги,287,279,335,270,42.03585,47.76541,Daghestan,1062.16467285156,NA
977,Dusrakh,Дусрах,Avar,NA,Avar,NA,TRUE,Дусрек (Диси),Дусрек (Риси),Дусрак,Дусрах,333,333,315,280,42.1275,46.8792,Daghestan,1872.45385742188,NA
2177,Dyubek,Дюбек,Tabasaran,NA,Tabasaran,NA,TRUE,Дювек,Дювек,Дювек,Дюбек,878,818,1038,1893,42.0208,47.969528,Daghestan,450.744720458984,NA
8064,Dyuzler,Дюзлер,NA,NA,Tabasaran,NA,NA,NA,NA,NA,Дюзлер,NA,NA,NA,562,41.93583,48.265,Daghestan,68.0397644042969,NA
4167,Zhazhada,Жажада,Avar,NA,Avar,NA,TRUE,Жажада,Жажада,Жажада,Жажада,76,81,58,199,42.197157,46.424903,Daghestan,1892.42785644531,NA
1561,Zhamsory,Жамсоры,Dargwa,сев.,Dargwa,NA,TRUE,NA,Чамсарала,Чамсаре,Жамсоры,NA,42,73,0,42.382089,47.462508,Daghestan,1442.42224121094,NA
3061,Zaza,Заза,Lezgian,NA,Lezgian,NA,TRUE,Заза,Заза (Дзаза),Заза,Заза,494,500,470,37,41.77734,48.04628,Daghestan,752.088684082031,NA
199,Zaib,Заиб,Avar,NA,Avar,NA,TRUE,NA,NA,Заи,Заиб,NA,NA,56,226,42.489364,46.707472,Daghestan,799.366271972656,NA
131,Zanata,Заната,Avar,NA,Avar,NA,TRUE,Заната,Заната,Заната,Заната,200,202,159,198,42.485146,46.552771,Daghestan,1602.92211914063,NA
4709,Zekhida,Зехида,Tsez,цезский,Tsez,NA,TRUE,Зехиди,"Захида (Зехеди, Захиды)",Зихида,Зехида,103,105,82,502,42.19594,45.94664,Daghestan,1861.92724609375,NA
361,Zibirkhali,Зибирхали,Godoberi,NA,Godoberi,NA,TRUE,Зуберхули,Зибирхали (Зибихули),Зиберкали,Зибирхали,285,279,147,64,42.66833,46.07194,Daghestan,1791.06030273438,NA
2031,Zid'yan,Зидьян,North Azerbaijani,NA,North Azerbaijani,NA,TRUE,Задiан,Задиан (Зидиан),Зидьян,Зидьян,533,532,555,150,42.050776,48.142558,Daghestan,481.721801757813,NA
2037,Zid'yan-Kazmalyar,Зидьян-Казмаляр,North Azerbaijani,NA,North Azerbaijani,NA,TRUE,NA,NA,Зидьян Казмалар,Зидьян-Казмаляр,NA,NA,330,977,42.07957,48.15655,Daghestan,203.86637878418,NA
273,Zilo,Зило,Andi,верхне-андийски,Andi,NA,TRUE,Зило,"Зило (Зилю, Зилюръ, Зилудиралъ)",Зило,Зило,569,469,510,1220,42.731394,46.319223,Daghestan,1202.365234375,NA
2193,Zil',Зиль,Tabasaran,NA,North Azerbaijani,NA,FALSE,Зиль,Зиль,Зиль,Зиль,346,345,433,454,41.99616,48.03356,Daghestan,587.220520019531,NA
2187,Zil'bachi,Зильбачи,Dargwa,муиринский,Dargwa,NA,TRUE,Зильвачи,"Зильбачи (Зильмачи, Зильвачи)",Зильбачи,Зильбачи,325,339,397,941,42.139973,47.717838,Daghestan,1311.98291015625,NA
3079,Zil'dik,Зильдик,Tabasaran,NA,Tabasaran,NA,TRUE,"Зильдик (Сильдик, Чичик)","Зильдик (Цыльдик, С-, Чичик)",Зильдик,Зильдик,475,446,512,585,41.81292,47.98958,Daghestan,1084.77709960938,NA
1881,Zil'mukmakhi,Зильмукмахи,Dargwa,усиша-бутринский,Dargwa,NA,TRUE,Зилмук,Зальмук-Махи,Зелмук-Махи,Зильмукмахи,193,223,244,328,42.28483,47.3958,Daghestan,1409.150390625,NA
55,Zirani,Зирани,Avar,NA,Avar,NA,TRUE,Зирани,"Зирани, Зираны",Зирани,Зирани,154,160,188,65,42.61797,46.94436,Daghestan,543.17236328125,NA
1231,Ziurib,Зиуриб,Avar,NA,Avar,NA,TRUE,Зиури,Зиури,Зиуриб,Зиуриб,226,239,232,326,42.41789,46.705088,Daghestan,1846.06469726563,NA
2377,Zubanchi,Зубанчи,Dargwa,муиринский,Dargwa,NA,TRUE,Зубанчи (Зуванчи),"Зубанчи (Зуванчи, Аубанчи)",Зубанчи,Зубанчи,616,622,664,1639,42.13309,47.70417,Daghestan,1077.52282714844,NA
3025,Zukhrabkent,Зухрабкент,Lezgian,NA,Lezgian,NA,TRUE,Зограб-кент (Зограба-хюр),Зограб Кент (Зограб-Хюр),Зуграб-Кент,Зухрабкент,469,452,396,250,41.56687,48.1529,Daghestan,1066.8203125,NA
4605,Ibragimotar,Ибрагимотар,NA,NA,Avar,NA,NA,NA,NA,NA,Ибрагимотар,NA,NA,NA,1232,43.56491,46.46879,Daghestan,8.99989604949951,NA
1069,Ivaylazda,Ивайлазда,Avar,NA,Avar,NA,TRUE,NA,NA,Иваназда,Ивайлазда,NA,NA,32,73,42.42,46.79917,Daghestan,1323.56298828125,NA
99,Igali,Игали,Avar,NA,Avar,NA,TRUE,Игали,Игали (Ихали),Игали,Игали,1138,1135,852,2558,42.7181,46.5811,Daghestan,623.298461914063,NA
4069,Igrakh,Играх,Lezgian,NA,Lezgian,NA,TRUE,Икрах (Гирак),Икрах (Гирак),Икрах,Играх,158,159,182,2,41.5525,47.52831,Daghestan,1700.18786621094,NA
379,Izano,Изано,Akhvakh,сев.-ахвах.,Akhvakh,NA,TRUE,Изани (Изаниб),Изани (Изанибъ),Изани,Изано,412,433,318,1211,42.52735,46.40389,Daghestan,1823.7587890625,NA
4143,Izta,Изта,Avar,NA,Avar,NA,TRUE,Изата (Изеда),"Изата (Издата, Изеда, Эзета)",Изата,Изта,34,39,17,17,42.30889,46.35667,Daghestan,2081.75659179687,NA
3085,Ikra,Икра,Lezgian,NA,Lezgian,NA,TRUE,"Икра (Кири, Крар)","Икра (Кири, Крар)",Икра,Икра,1343,1085,1288,1620,41.5633,48.0094,Daghestan,996.627868652344,NA
8058,Imeni Michurina,Имени Мичурина,NA,NA,North Azerbaijani,NA,NA,NA,NA,NA,Имени Мичурина,NA,NA,NA,878,42.17695,48.19867,Daghestan,-14.7653760910034,NA
383,Ingerdakh,Ингердах,Avar,NA,Avar,NA,TRUE,Ингердах,Ингердахъ (Ингурдахъ),Ингердах,Ингердах,456,490,531,1065,42.58926,46.398373,Daghestan,1881.91979980469,NA
385,Ingishi,Ингиши,Avar,NA,Avar,NA,TRUE,Ингиш,Ингишь (Ингишу),Ингиши,Ингиши,414,454,455,839,42.77477,46.54264,Daghestan,1533.03540039063,NA
8005,Indira,Индира,NA,NA,Karata,NA,NA,NA,NA,NA,Индира,NA,NA,NA,429,43.495013,46.80715,Daghestan,-6,NA
1325,Inzimakhi,Инзимахи,Dargwa,сев.,Dargwa,NA,TRUE,NA,NA,Инзи-Махи,Инзимахи,NA,NA,145,1382,42.27238,47.35613,Daghestan,1409.185546875,NA
3467,Inisha,Иниша,Lak,NA,Lak,NA,TRUE,Иниши,"Иниши (Иниша, Инишалю)",Иниша,Иниша,167,163,114,131,42.15031,47.20492,Daghestan,1710.07116699219,NA
209,Inkvalita,Инквалита,Avar,NA,Avar,NA,TRUE,Инкоалита,Инкоалита (Инколита),Инколита,Инквалита,173,176,135,46,42.69936,46.68833,Daghestan,1519.19567871094,NA
1695,Inkuchimakhi,Инкучимахи,Dargwa,цуд.,Dargwa,NA,TRUE,NA,Инкучи-Махи,Инкучи-Махи,Инкучимахи,NA,65,86,541,42.35029,47.17345,Daghestan,1106.42065429688,NA
8007,Inkhelo (Novoe Inkhelo),Инхело,NA,NA,Karata,NA,NA,NA,NA,NA,Инхело,NA,NA,NA,841,43.46797,46.61451,Daghestan,13.180401802063,NA
4693,Inkhokvari,Инхоквари,Xvarshi,NA,Xvarshi,Inkhoqwari,TRUE,Инхокори,"Инхокори (Анкачвари, Ангаквари)",Инхокори,Инхоквари,289,319,238,258,42.410888,46.044877,Daghestan,1394.09533691406,NA
1035,Iputa,Ипута,Avar,NA,Avar,NA,TRUE,NA,NA,Ината,Ипута,NA,NA,217,97,42.47852,46.96592,Daghestan,1454.63317871094,NA
2189,Iragi,Ираги,Dargwa,муиринский,Dargwa,NA,TRUE,Ирага,"Ирага (Ирыгы, Ирагари)",Ирага,Ираги,352,353,361,843,42.11889,47.75336,Daghestan,850.65673828125,NA
2171,Iraki,Ираки,Dargwa,муиринский,Dargwa,NA,TRUE,Ирига (Ириква),"Ирига (Ириги, Ириага, Ириква, Ириквали)",Ираки,Ираки,286,299,251,394,42.16405,47.71739,Daghestan,1105.35485839844,NA
1503,Irgali,Иргали,Dargwa,цуд.,Dargwa,NA,TRUE,Иргали-Махи,Иргали-Махи,Иргалы-Махи,Иргали,202,226,204,206,42.41281,47.13538,Daghestan,1212.36743164063,NA
107,Irganay,Ирганай,Avar,NA,Avar,NA,TRUE,Ирхана (Рихуни),"Ирганай (Ирханы, Иргана, Рихуни)",Ирганай,Ирганай,596,613,699,2290,42.649543,46.912048,Daghestan,577.021057128906,NA
993,Irib,Ириб,Avar,NA,Avar,NA,TRUE,Ириб (Ири),Ириб (Ири),Ириб,Ириб,562,555,460,1108,42.1606,46.8169,Daghestan,1646.95629882813,NA
2343,Irichi,Иричи,Dargwa,муиринский,Dargwa,NA,TRUE,Иричи,"Иричи (Ирачи, Иречи, Урача)",Иричи,Иричи,121,121,90,8,42.13548,47.79158,Daghestan,882.535583496094,NA
3089,Ispik,Испик,Lezgian,NA,Lezgian,NA,TRUE,Испик (Спик),Испик (Спик),Испик,Испик,520,485,581,1274,41.61489,48.19118,Daghestan,714.948913574219,NA
8208,Ikha,Иха,NA,NA,Avar,NA,NA,NA,NA,NA,Иха,NA,NA,NA,20,42.256944,45.820075,Daghestan,1752.49572753906,Казбековский район
3959,Ikhrek,Ихрек,Rutul,NA,Rutul,NA,TRUE,Ихрек (Иги-рак),"Ихрек (Игирак, Икраг, Гирак)",Ихрек,Ихрек,1725,1669,1456,2049,41.693931,47.210005,Daghestan,1792.92919921875,NA
2197,Itsari,Ицари,Dargwa,ицар.,Dargwa,NA,TRUE,Ицари (Уцари),"Ицари (Ицалю, Уцари)",Ицари,Ицари,535,563,639,223,41.99733,47.5833,Daghestan,1436.42858886719,NA
4681,Itsirakh,Ицирах,Tsez,цезский,Tsez,NA,TRUE,Ицрах,Ицрахъ (Ицирахо),Ицрах,Ицирах,61,58,23,487,42.244662,45.849585,Daghestan,1765.32189941406,NA
4071,Iche,Иче,Lezgian,NA,Lezgian,NA,TRUE,Ича,Ича,Ича,Иче,189,195,242,2,41.58146,47.509933,Daghestan,2240.88012695312,NA
3225,Ichin,Ичин,Lezgian,NA,Lezgian,NA,TRUE,Ичин,Ичин,Ичин,Ичин,484,481,434,333,41.68263,47.99189,Daghestan,848.014709472656,NA
403,Ichichali,Ичичали,Avar,NA,Avar,NA,TRUE,Ичичали,Ичичали (Ичить),Ичичали,Ичичали,489,484,482,156,42.732617,46.405263,Daghestan,1663.771484375,NA
211,Ishtiburi,Иштибури,Avar,NA,Avar,NA,TRUE,Иштибури,Иштибури,Иштибури,Иштибури,194,192,196,292,42.679149,46.702701,Daghestan,1649.22534179688,NA
4277,Kabasida,Кабасида,Avar,NA,Avar,NA,TRUE,Кобосида,Кобосида,Кобоседа,Кабасида,28,36,22,16,42.205771,46.341334,Daghestan,1751.28112792969,NA
3113,Kabir,Кабир,Lezgian,NA,Lezgian,NA,TRUE,Кабир,Кабир,Капир,Кабир,1932,1987,1135,1424,41.5592,48.0444,Daghestan,942.850341796875,NA
3097,Kabir-Kazmalyar,Кабир-Казмаляр,Lezgian,NA,Lezgian,NA,TRUE,NA,NA,Кабир-Казм.,Кабир-Казмаляр,NA,NA,411,2191,41.7498,48.48848,Daghestan,129.102416992188,NA
1327,Kavkamakhi,Кавкамахи,Dargwa,сев.,Dargwa,NA,TRUE,Кавка,Кавка-Махи (Верх. И Ниж),Кавка-Махи,Кавкамахи,489,523,426,1407,42.322184,47.30588,Daghestan,1676.33056640625,NA
713,Kadar,Кадар,Dargwa,кадар.,Dargwa,NA,TRUE,Кадар (Гадар),Кадар (Гадар),Кадар,Кадар,3261,3214,1530,2276,42.6242,47.2903,Daghestan,1107.490234375,NA
1645,Kaddamakhi,Каддамахи,Dargwa,сирхинско-тантынский,Dargwa,NA,TRUE,Кадда-Махи,Кодда-Махи,Кадда-Махи,Каддамахи,46,46,48,94,42.045284,47.356444,Daghestan,1770.93872070313,NA
3735,Kadirkent,Кадиркент,Dargwa,сев.,Dargwa,NA,TRUE,NA,NA,Кадар-Кент,Кадиркент,NA,NA,112,871,42.49661,47.60836,Daghestan,716.831787109375,NA
681,Kaka,Кака,Kumyk,NA,Lezgian,NA,FALSE,NA,NA,Кака,NA,NA,NA,42,NA,41.478513,47.636857,Daghestan,1143.21435546875,?
3961,Kaka,Кака,Lezgian,NA,Lezgian,NA,TRUE,Кака (Кека),"Кака (Кока, Кека, Кахка)",Кака,Кака,726,700,632,1653,41.478513,47.636857,Daghestan,1143.21435546875,?
801,Kaka-Shura,Кака-Шура,Kumyk,NA,Kumyk,NA,TRUE,Кака-Шура,Кака-Шура,Кака-Шура,Кака-Шура,3626,3922,3090,6030,42.65194,47.38278,Daghestan,743.291320800781,NA
803,Kakamakhi,Какамахи,Kumyk,NA,Dargwa,NA,FALSE,NA,NA,Кака-Махи,Какамахи,NA,NA,71,1270,42.39507,47.30644,Daghestan,1298.25524902344,Левашинский район
1479,Kakamakhi,Какамахи,Dargwa,сев.,Dargwa,NA,TRUE,Кака-Махи,Кака-Махи,Кака-Махи,Какамахи,955,933,770,2652,42.39507,47.30644,Daghestan,1298.25524902344,Левашинский район
1333,Kakmakhi,Какмахи,Dargwa,сев.,Dargwa,NA,TRUE,NA,NA,Как-Махи,Какмахи,NA,NA,62,612,42.29169,47.38541,Daghestan,1357.43872070313,NA
1997,Kala,Кала,North Azerbaijani,NA,North Azerbaijani,NA,TRUE,Хан-Мамед-кала,Хан-Мамед-Гала,Мамед-Кала,Кала,160,167,153,1751,42.1464,48.1634,Daghestan,14.7475910186768,Дербентский район
4095,Kala,Кала,Rutul,NA,North Azerbaijani,NA,FALSE,Кала,Кала (Каля),Кала,Кала,196,181,171,410,42.1464,48.1634,Daghestan,14.7475910186768,Дербентский район
3963,Kaladzhukh,Каладжух,Lezgian,NA,Lezgian,NA,TRUE,"Каладжих (Каладжуг, Келег)","Каладжуг (Каладжух, Келет)",Каладжух,Каладжух,1335,1331,795,1758,41.366176,47.908075,Daghestan,1393.78210449219,NA
925,Kalib,Калиб,Archi,верхне-андийски,Archi,NA,TRUE,NA,NA,Кала,Калиб,NA,NA,43,0,42.07054,46.86002,Daghestan,2117.40405273438,NA
2173,Kalkni,Калкни,Dargwa,муиринский,Dargwa,NA,TRUE,Калкни,"Калкни (Гкалкни, Колкни)",Калкни,Калкни,592,587,488,1316,42.17732,47.70499,Daghestan,1160.2421875,NA
3937,Kaluk,Калук,Lezgian,NA,Lezgian,NA,TRUE,NA,NA,Калук,Калук,NA,NA,254,1231,41.47193,47.65696,Daghestan,1088.41369628906,NA
3965,Kal'yal,Кальял,Tsakhur,NA,Tsakhur,NA,TRUE,Калiал (Кялал),"Калиал (Кялал, Келел)",Кальял,Кальял,520,526,158,399,41.684366,47.003665,Daghestan,1970.560546875,NA
3565,Kamakhal,Камахал,Lak,NA,Lak,NA,TRUE,Камахал (Камукал),Камахал (Камукаль),Камакал,Камахал,284,313,246,53,42.227415,46.999859,Daghestan,1680.13818359375,NA
3561,Kamasha,Камаша,Lak,NA,Lak,NA,TRUE,Гамаши (Камаши),"Гамаши (Гамаша, Камаши, Камашлю)",Камаша,Камаша,243,247,230,25,42.22886,47.14153,Daghestan,1525.84362792969,NA
4263,Kamilukh,Камилух,Avar,NA,Avar,NA,TRUE,Камелюк (Камилуг),"Камелюкъ (Камелюхъ, Камилугъ)",Камилух,Камилух,352,346,207,904,41.90911,46.63101,Daghestan,2004.74877929687,NA
1343,Kamkadamakhi,Камкадамахи,Dargwa,сев.,Dargwa,NA,TRUE,NA,NA,Ком-Гада-Кунд,Камкадамахи,NA,NA,114,288,42.255826,47.308527,Daghestan,1643.22509765625,NA
1483,Kanasiragi,Канасираги,Dargwa,сев.,Dargwa,NA,TRUE,Кана-Сираги,Кана-Сираги (Сирагант),Канасарати,Канасираги,837,791,703,733,42.252582,47.649095,Daghestan,1113.08264160156,NA
3503,Kani,Кани,Lak,NA,Lak,NA,TRUE,Кани,Кани (Канилю),Кани,Кани,784,814,526,289,42.13937,47.18846,Daghestan,1740.2744140625,NA
2205,Kapkaykent,Капкайкент,Kumyk,NA,Kumyk,NA,TRUE,Гапкай-кент,Гапкай-Кент,Капкай-Кент,Капкайкент,1411,1413,888,1020,42.248157,47.798984,Daghestan,371.838745117187,NA
3511,Kara,Кара,Lak,NA,Lak,NA,TRUE,Кара (Чар),"Кара (Чар, Чаралю)",Кара,Кара,1200,1226,819,532,42.28724,47.17093,Daghestan,1481.73327636719,NA
3757,Karabudakhkent,Карабудахкент,Kumyk,NA,Kumyk,NA,TRUE,Кара-будахкент,Карабудах-Кент,Карабудахкент,Карабудахкент,4023,3709,3048,15361,42.7067,47.5603,Daghestan,207.161926269531,NA
1041,Karadakh,Карадах,Avar,NA,Avar,NA,TRUE,NA,NA,Карадах,Карадах,NA,NA,9,392,42.471023,46.863724,Daghestan,706.875061035156,NA
719,Karamakhi,Карамахи,Dargwa,кадар.,Dargwa,NA,TRUE,NA,NA,Кар,Карамахи,NA,NA,810,4489,42.618786,47.256653,Daghestan,1071.24621582031,NA
953,Karanub,Карануб,Avar,NA,Avar,NA,TRUE,Карануб (Карану),Карануб,Каранаб,Карануб,194,197,145,161,42.12262,46.81777,Daghestan,1978.08190917969,NA
405,Karata,Карата,Karata,карат.,Karata,NA,TRUE,Карата,Карати (Кирай),Карата,Карата,960,948,1252,4154,42.5942,46.3419,Daghestan,1463.62890625,NA
8213,Karatyube,Каратюбе,NA,NA,Tsez,NA,NA,NA,NA,NA,Каратюбе,NA,NA,NA,286,43.66738,46.82335,Daghestan,-6.52905511856079,NA
8212,Karaozek (Karauzek),Караузек,NA,NA,Bezhta,NA,NA,NA,NA,NA,Караузек,NA,NA,NA,535,43.68663,46.66615,Daghestan,-4,NA
2209,Karatsan,Карацан,Dargwa,кайт.,Dargwa,NA,TRUE,Карацан,Карацан (Корацан),Карацан,Карацан,725,689,754,1162,42.0886,47.8683,Daghestan,514.275756835938,NA
3505,Karasha,Караша,Lak,NA,Lak,NA,TRUE,Караши (Хараши),"Караши (Хараша, Карашилю)",Караша,Караша,460,460,414,165,42.2221,47.1772,Daghestan,1562.20544433594,NA
1651,Karashimakhi,Карашимахи,Dargwa,сирхинско-тантынский,Dargwa,NA,TRUE,Кураци-Махи,Кураща-Махи,Кураши-Махи,Карашимахи,81,70,46,59,42.02781,47.3975,Daghestan,1916.70581054688,NA
1665,Karayamakhi,Караямахи,Dargwa,сирхинско-тантынский,Dargwa,NA,TRUE,Караилия-Махи,Карах-Махи,Каран-Махи,Караямахи,76,79,54,60,42.07822,47.34643,Daghestan,2153.26171875,NA
1489,Karbuchimakhi,Карбучимахи,Dargwa,сирхинско-тантынский,Dargwa,NA,TRUE,Харбучи-Махи (Карбучи-Махи),Харбучи-Махи (Карбучи-Махи),Карбучи Махи,Карбучимахи,441,456,390,276,42.007461,47.429948,Daghestan,2046.58081054687,NA
1607,Kardamakhi,Кардамахи,Dargwa,сев.,Dargwa,NA,TRUE,NA,NA,Карт-Махи,Кардамахи,NA,NA,78,107,42.37861,47.46639,Daghestan,1471.27307128906,NA
4127,Kardib,Кардиб,Avar,NA,Avar,NA,TRUE,Карда,"Карда (Корда, Кардыбъ, Карда)",Карда,Кардиб,260,296,165,391,42.111443,46.514655,Daghestan,2094.64208984375,NA
1907,Karekadani,Карекадани,Dargwa,цуд.,Dargwa,NA,TRUE,Кара-Кадани-Махи,Каракадани-Махи,Кадани,Карекадани,1107,165,259,730,42.35747,47.13098,Daghestan,1387.2099609375,"Кадани, слившийся с Каре"
1909,Karekadani,Карекадани,Dargwa,цуд.,Dargwa,NA,TRUE,NA,Кара-Махи,Каре,NA,NA,248,261,NA,42.35747,47.13098,Daghestan,1387.2099609375,"Кадани, слившийся с Каре"
1813,Karkatsi,Каркаци,Dargwa,сирхинско-тантынский,Dargwa,NA,TRUE,Каркацы-Махи,Каркаци-Махи,Каркац-Махи,Каркаци,70,50,53,68,42.08389,47.46694,Daghestan,1384.12854003906,NA
1799,Karlabko,Карлабко,Dargwa,сев.,Dargwa,NA,TRUE,Харланко (Карланко),Харлапко (Карлапко),Харлапко,Карлабко,716,702,696,2686,42.3542,47.3967,Daghestan,1491.33837890625,NA
2215,Kartalay,Карталай,Dargwa,кайт.,Dargwa,NA,TRUE,Карталай,Карталай,Карталай,Карталай,445,429,246,599,42.08709,47.85834,Daghestan,555.617980957031,NA
3115,Kartas-Kazmalyar,Картас-Казмаляр,Lezgian,NA,Lezgian,NA,TRUE,NA,NA,Картас-Казм.,Картас-Казмаляр,NA,NA,212,1817,41.81717,48.39484,Daghestan,81.3321533203125,?
3367,Kartas-Kazmalyar,Картас-Казмаляр,Lezgian,NA,Lezgian,NA,TRUE,NA,NA,Картас-Казмаляр,NA,NA,NA,24,NA,41.81717,48.39484,Daghestan,81.3321533203125,?
3075,Karchag,Карчаг,Lezgian,NA,Lezgian,NA,TRUE,Карчаг (Куарчаг),"Кирчаг (Куарчаг, Дере-Кеп)",Карчаг,Карчаг,754,761,724,1738,41.77369,48.15948,Daghestan,309.227447509766,NA
8000,Karsha,Карша,NA,NA,Dargwa,NA,NA,NA,NA,NA,Карша,NA,NA,NA,1230,42.26605,47.34372,Daghestan,1419.48022460938,дубликат
8000,Karsha,Карша,NA,NA,Dargwa,NA,NA,NA,NA,NA,Байкатмахи,NA,NA,NA,148,42.26605,47.34372,Daghestan,1419.48022460938,дубликат
8000,Karsha,Карша,NA,NA,Dargwa,NA,NA,NA,NA,NA,Карша,NA,NA,NA,1230,42.26605,47.34372,Daghestan,1419.48022460938,дубликат
8000,Karsha,Карша,NA,NA,Dargwa,NA,NA,NA,NA,NA,Байкатмахи,NA,NA,NA,148,42.26605,47.34372,Daghestan,1419.48022460938,дубликат
1667,Kassagumakhi,Кассагумахи,Dargwa,сирхинско-тантынский,Dargwa,NA,TRUE,Касагу-Махи,Касагу-Махи,Касагу-Махи,Кассагумахи,155,110,103,143,42.044941,47.371867,Daghestan,1712.48352050781,NA
3125,Kasumkent,Касумкент,Lezgian,NA,Lezgian,NA,TRUE,Касум-кент (Касума-хюр),Касум-Кент (Касюма-Хюр),Касум-Кент,Касумкент,580,623,1258,13234,41.6789,48.1394,Daghestan,500.512512207031,NA
4281,Katroso,Катросо,Avar,NA,Avar,NA,TRUE,Гортль-Росо,Гортль-Коло (Гортль-Росо),Кортроса,Катросо,123,117,46,81,42.188329,46.33021,Daghestan,1658.35485839844,NA
825,Kafyr-Kumukh,Кафыр-Кумух,Kumyk,NA,Kumyk,NA,TRUE,Кафыр-Кумух (Кацир-Кумык),"Кафыр-Кумух (Кафыр-Кумык, Кяпир-К.)",Кафыр-Кумух,Кафыр-Кумух,1298,1116,1227,5103,42.83754,47.15412,Daghestan,369.482421875,NA
115,Kakh,Ках,Avar,NA,Avar,NA,TRUE,Ках,"Кахабъ-Росо (Кахаросъ, Ахкентъ)",Ках,Ках,212,221,211,276,42.557664,46.790848,Daghestan,1523.94067382812,NA
65,Kakhabroso,Кахабросо,Avar,NA,Avar,NA,TRUE,Кахаб-росо (Ахкент),"Кахабъ-Росо (Кахаросъ, Ахкентъ)",Кахиб-Росо,Кахабросо,345,341,311,796,42.73896,46.704697,Daghestan,1752.86315917969,NA
1007,Kakhib,Кахиб,Avar,NA,Avar,NA,TRUE,Кахиб (Кахи),"Кахибъ (Кахи, Кахи-Хиндахъ, Кахевъ)",Кахиб,Кахиб,1610,1682,1312,1090,42.4272,46.5969,Daghestan,1575.30969238281,NA
109,Kakhikal,Кахикал,Avar,NA,Avar,NA,TRUE,Кахи-Кала,Кахи-Калъ (Кахи-Калахъ),Кахиналь,Кахикал,105,124,116,339,42.499065,46.874809,Daghestan,1035.96752929688,NA
3447,Kakhtsug,Кахцуг,Lezgian,NA,Lezgian,NA,TRUE,Кахцуг,Кахцуг,Кахцуг,Кахцуг,488,441,394,643,41.59957,48.06005,Daghestan,697.790100097656,NA
8211,Kachalay,Качалай,NA,NA,Bezhta,NA,NA,NA,NA,NA,Качалай,NA,NA,NA,938,43.70198,46.70946,Daghestan,-4,NA
3393,Kachalkent,Качалкент,Lezgian,NA,Lezgian,NA,TRUE,Качал-кент (Гачала-хюр),Качал-Кент (Гячала-хюр),Качал-Кент,Качалкент,239,241,217,258,41.66885,48.04288,Daghestan,691.373474121094,NA
721,Kachkalyk,Качкалык,Dargwa,кадар.,Dargwa,NA,TRUE,NA,NA,Качилик,Качкалык,NA,NA,408,419,42.61852,47.33391,Daghestan,1102.58630371094,NA
3513,Kaya,Кая,Lak,NA,Lak,NA,TRUE,Кал (Чейми),"Кая (Каялю, Чайми)",Кая,Кая,2253,2293,1415,579,42.0765,47.20219,Daghestan,1848.71630859375,NA
2041,Kayakent,Каякент,Kumyk,NA,Kumyk,NA,TRUE,Канкент,Каякент,Кая-Кент,Каякент,2118,2050,2070,11145,42.3847,47.9044,Daghestan,171.420806884766,NA
413,Kvanada,Кванада,Bagvalal,NA,Bagvalal,NA,TRUE,"Конода (Куанада, Куантлян)",Конода (Куанада),Конода,Кванада,846,830,996,1389,42.561478,46.17397,Daghestan,1635.52282714844,NA
453,Kvankero,Кванкеро,Akhvakh,сев.-ахвах.,Akhvakh,NA,TRUE,NA,Конкеро (Куанкеро),Канкеро,Кванкеро,NA,496,205,369,42.55244,46.3404,Daghestan,1359.33947753906,NA
4697,Kvantlada,Квантлада,Xvarshi,NA,Xvarshi,Inkhoqwari,TRUE,Коантла (Коанда),"Коантла (Коантда, Контляда, Куантлялъ)",Котлода,Квантлада,271,278,177,86,42.39204,46.06382,Daghestan,1830.63024902344,NA
415,Kvankhidatli,Кванхидатли,Andi,нижне-андийский,Andi,NA,TRUE,Конхидатль (Куанхидатль),Конхидатль (Куанхъ),Конхидатль,Кванхидатли,546,419,419,921,42.65789,46.271742,Daghestan,714.97412109375,NA
3035,Kvardal,Квардал,Aghul,агульский собственно,Aghul,NA,TRUE,Кордал (Куардал),"Кордал (Куардал, Квардал)",Кордал,Квардал,120,150,161,184,41.6803,47.56277,Daghestan,1980.43359375,NA
4145,Kversatl',Кверсатль,Avar,NA,Avar,NA,TRUE,Гверсетль (Горситль),"Гверситль (Горситль, Гехрситль, Герсакъ)",Керсатль,Кверсатль,100,87,28,11,42.302562,46.392793,Daghestan,1909.98559570313,NA
1027,Keger,Кегер,Avar,NA,Avar,NA,TRUE,Кегер,"Кегеръ (Когеръ, Кагалъ)",Кегер,Кегер,608,3475,709,596,42.3767,47.0275,Daghestan,1499.56359863281,NA
4701,Kedi,Кеди,Avar,NA,Avar,NA,TRUE,Киды (Кейди),Кида,Кеды,Кеди,484,527,285,740,42.52611,45.96639,Daghestan,1949.04809570313,NA
1339,Kertukmakhi,Кертукмахи,Dargwa,сев.,Dargwa,NA,TRUE,NA,NA,Кертух-Махи,Кертукмахи,NA,NA,94,662,42.28799,47.34305,Daghestan,1313.01879882813,NA
927,Keserib,Кесериб,Archi,верхне-андийски,Archi,NA,TRUE,NA,NA,Кесера,Кесериб,NA,NA,76,82,42.0647,46.888,Daghestan,2487.88452148437,NA
4703,Kidero,Кидеро,Tsez,цезский,Tsez,NA,TRUE,Кидеро,"Кидеро (Кидери, Кидири)",Кидеро,Кидеро,269,357,283,748,42.1931,45.9583,Daghestan,1900.54162597656,NA
409,Kizhani,Кижани,Avar,NA,Avar,NA,TRUE,Кижани,Кижани (Кижано),Кижани,Кижани,309,314,309,345,42.74031,46.364775,Daghestan,1515.361328125,NA
3851,Kizilyurt,Кизилюрт,Russian,NA,Avar,NA,FALSE,NA,NA,Красный пос.,Кизилюрт,NA,NA,171,32552,43.20182,46.87756,Daghestan,54.6497497558594,NA
1031,Kikuni,Кикуни,Avar,NA,Avar,NA,TRUE,Кикуны (Кикуни),Кикуны (Кикуни),Кикуни,Кикуни,1081,943,1008,3224,42.513979,47.036122,Daghestan,654.801574707031,NA
3999,Kiler,Килер,Lezgian,NA,Lezgian,NA,TRUE,NA,NA,Микрах-Казм.,Килер,NA,NA,458,395,41.37989,47.90199,Daghestan,1163.45422363281,NA
411,Kilyatl',Килятль,Avar,NA,Avar,NA,TRUE,Килитль,Килятль,Килатль,Килятль,581,519,637,1034,42.704637,46.466046,Daghestan,948.678039550781,NA
4683,Kimyatli,Кимятли,Tsez,цезский,Tsez,NA,TRUE,Кематль (Киматль),"Кематль (Киметль, Кемеши)",Кематль,Кимятли,81,83,20,242,42.2488,45.82303,Daghestan,1929.25463867188,NA
3987,Kina,Кина,Rutul,NA,Rutul,NA,TRUE,Кина,Кина (Хина),Кина,Кина,240,262,196,653,41.6166,47.2647,Daghestan,1573.32702636719,NA
3333,Kirka,Кирка,Lezgian,NA,Lezgian,NA,TRUE,NA,NA,Кирка-Казмаляр,Кирка,NA,NA,96,1252,41.5369,48.1894,Daghestan,571.179504394531,NA
2219,Kirki,Кирки,Dargwa,кайт.,Dargwa,NA,TRUE,Киркiа,"Кирхия (Хиркия, Кыркыль)",Керхи,Кирки,423,398,434,175,41.96917,47.81333,Daghestan,1230.92565917969,NA
2233,Kirtsik,Кирцик,Dargwa,кайт.,Dargwa,NA,TRUE,Кырцык (Гарцик),Кырцык (Гырцык),Кирцик,Кирцик,316,305,253,92,42.00129,47.84068,Daghestan,1194.64929199219,NA
4767,Kitlyarta,Китлярта,Tsez,цезский,Tsez,NA,TRUE,Китларта (Кенотло),Китлярта (Кутляла),Китлярота,Китлярта,32,37,10,216,42.20849,45.84333,Daghestan,1574.59216308594,NA
4761,Kituri,Китури,Tsez,цезский,Tsez,NA,TRUE,Китури,Китури (Кита),Кентури,Китури,179,220,77,666,42.244627,46.019304,Daghestan,1656.61291503906,NA
4023,Kiche,Киче,Rutul,NA,Rutul,NA,TRUE,Кича,Кича (Кичаллы),Кича,Киче,173,162,188,439,41.53146,47.48171,Daghestan,1291.65612792969,NA
2241,Kichi-Gamri,Кичи-Гамри,Dargwa,сев.,Dargwa,NA,TRUE,Кичи-Гамри (Хемур),"Кичи-Гамри (Хемур, Хамур)",Кичи-Гамры,Кичи-Гамри,710,732,563,1696,42.3125,47.7106,Daghestan,593.824096679688,NA
4141,Kishdatl',Кишдатль,Avar,NA,Avar,NA,TRUE,Гиштатль,Гиштатль,Гишдатль,Кишдатль,77,86,49,23,42.304638,46.342239,Daghestan,1852.33862304688,NA
2245,Kischa,Кища,Dargwa,муиринский,Dargwa,NA,TRUE,Кишiа (Чиша),"Кишия (Кишиа, Кишти, Чиша)",Кишия,Кища,1803,1789,431,3030,42.17677,47.58117,Daghestan,1319.17028808594,NA
1459,Kishamakhi,Кищамахи,Dargwa,сирхинско-тантынский,Dargwa,NA,TRUE,Киша-Махи,Киша-Махи,Киша-Махи,Кищамахи,9,207,146,148,42.051,47.44197,Daghestan,1781.78173828125,NA
1459,Kishamakhi,Кищамахи,Dargwa,сирхинско-тантынский,Dargwa,NA,TRUE,Киша-Махи,Киша-Махи,Киша-Махи,Кищамахи,191,207,146,148,42.051,47.44197,Daghestan,1781.78173828125,NA
1013,Kienikh,Киэних,Avar,NA,Avar,NA,TRUE,NA,NA,Кийних,Киэних,NA,NA,63,25,42.43056,46.66639,Daghestan,1386.07824707031,NA
37,Kolo,Коло,Avar,NA,Avar,NA,TRUE,NA,NA,Коло,NA,NA,NA,63,NA,42.65769,46.56607,Daghestan,1000.58825683594,?
191,Kolo,Коло,Avar,NA,Avar,NA,TRUE,Гаха-коло,Гахо-Коло (Каха-Коло),Гоха-Коло,Коло,217,191,214,538,42.65769,46.56607,Daghestan,1000.58825683594,?
8103,Komsomol'skoe,Комсомольское,NA,NA,Avar,NA,NA,NA,NA,NA,Комсомольское,NA,NA,NA,6986,43.1956,46.8964,Daghestan,55.7468070983887,NA
3107,Kondik,Кондик,Tabasaran,NA,Tabasaran,NA,TRUE,Кандик (Куанджик),"Кандик (Кандык, Куанджик)",Кандик,Кондик,572,582,741,1459,41.8028,47.8733,Daghestan,1352.59020996094,NA
3135,Kontsil',Конциль,Lezgian,NA,Lezgian,NA,TRUE,Канциль (Куанциль),"Канзиль (Канузиль, Куанциль)",Конциль,Конциль,636,604,603,428,41.751813,48.018508,Daghestan,900.854370117188,NA
1039,Koroda,Корода,Avar,NA,Avar,NA,TRUE,Корода,Корода,Корода,Корода,1507,1456,1380,939,42.44961,46.846988,Daghestan,856.593078613281,NA
4007,Korsh,Корш,Tsakhur,NA,Tsakhur,NA,TRUE,Корш,Корш (Кирш),Корш,Корш,52,55,34,65,41.66952,47.06211,Daghestan,1822.79211425781,NA
4137,Kosob,Кособ,Avar,NA,Avar,NA,TRUE,Ерта,Эрта,Кособ,Кособ,72,75,55,245,42.242893,46.368239,Daghestan,1307.34826660156,NA
981,Kosroda,Косрода,Avar,NA,Avar,NA,TRUE,Косрода (Тлберола (?)),"Косрода (Кусрода, Тлосрода)",Косрода,Косрода,208,205,186,114,42.13141,46.85829,Daghestan,2096.43188476563,NA
8193,Kochali,Кочали,NA,NA,Chamalal,NA,NA,NA,NA,NA,Кочали,NA,NA,NA,670,42.527888,46.116112,Daghestan,987.192504882813,NA
3161,Kochkhyur (Kuchkhyur),Кочхюр,Lezgian,NA,Lezgian,NA,TRUE,Кочкор (Кюч-хюр),Кочхер (Кюч-хюр),Кочхюр,Кочхюр,1134,1127,865,0,41.5225,47.86562,Daghestan,1423.30456542969,NA
117,Kuanib,Куаниб,Avar,NA,Avar,NA,TRUE,Куани,"Куана (Коани, Канибъ)",Коани,Куаниб,287,292,317,454,42.509735,46.611385,Daghestan,1549.83215332031,NA
3519,Kuba,Куба,Lak,NA,Lak,NA,TRUE,"Куба (Куни, Губа)","Куба (Кува, Кубалю)",Куба,Куба,917,842,937,456,42.3247,47.1181,Daghestan,1380.04467773437,NA
929,Kubatl',Кубатль,Archi,верхне-андийски,Archi,NA,TRUE,NA,NA,Кубак,Кубатль,NA,NA,100,120,42.03659,46.85973,Daghestan,2160.43139648437,NA
2249,Kubachi,Кубачи,Dargwa,кубач-ашт.,Dargwa,NA,TRUE,Кубачи,"Кубачи (Кубечи, Гувачи, Арбучи, Ухбук)",Кубачи,Кубачи,2232,2241,1733,3055,42.0856,47.6031,Daghestan,1636.75378417969,NA
3501,Kubra,Кубра,Lak,NA,Lak,NA,TRUE,Кубра (Кувур),"Кубра (Кубралю, Кувур",Кубра,Кубра,182,170,158,198,42.14373,47.08175,Daghestan,1813.15734863281,NA
1685,Kubrimakhi,Кубримахи,Dargwa,сирхинско-тантынский,Dargwa,NA,TRUE,Хурбая-Махи,Хурбая-Махи,Хурва-Махи,Кубримахи,43,38,38,18,42.073018,47.372684,Daghestan,1787.24914550781,NA
2311,Kuvag,Куваг,Tabasaran,NA,Tabasaran,NA,TRUE,Куваг,Куваг,Куваг,Куваг,98,98,103,99,41.926587,47.90245,Daghestan,1047.09765625,NA
3167,Kuvig,Кувиг,Tabasaran,NA,Tabasaran,NA,TRUE,Кувиг,Кувиг (Кувек),Кувиг,Кувиг,227,246,166,102,41.88482,47.886538,Daghestan,1073.28186035156,NA
3145,Kug,Куг,Lezgian,NA,Lezgian,NA,TRUE,Куг,Куг (Икол),Куг,Куг,579,611,696,862,41.7711,47.9647,Daghestan,1202.62145996094,NA
2191,Kudagu,Кудагу,Dargwa,муиринский,Dargwa,NA,TRUE,Кудагу,"Кудагу (Кудаги, Кудали)",Кудагу,Кудагу,152,148,248,564,42.13322,47.73006,Daghestan,1117.60717773438,NA
1043,Kudali,Кудали,Avar,NA,Avar,NA,TRUE,Кудали,Кудали,Кудали,Кудали,978,967,1122,914,42.3678,47.0789,Daghestan,1412.06433105469,NA
417,Kudiyabroso,Кудиябросо,Akhvakh,сев.-ахвах.,Akhvakh,NA,TRUE,"Кудиаб-росо (Ахвах, Инка-Гаин)",Кудиаб-Росо (Ахвахъ),Кудияб-Россо,Кудиябросо,708,700,367,2233,42.541069,46.377932,Daghestan,1566.51831054688,NA
119,Kudutl',Кудутль,Avar,NA,Avar,NA,TRUE,Кодутль,"Кудутль (Кодутль, Кодухъ)",Кодотль,Кудутль,677,668,524,541,42.5783,47.0194,Daghestan,939.047058105469,NA
2131,Kuzhnik,Кужник,Tabasaran,NA,Tabasaran,NA,TRUE,Худжник (Куджник),Хужник (Кужник),Хужник,Кужник,349,343,366,846,41.95549,47.82231,Daghestan,1191.52758789063,NA
3179,Kuysun,Куйсун,Lezgian,NA,Lezgian,NA,TRUE,NA,NA,Койсун-Казмаляр,Куйсун,NA,NA,160,3194,41.57303,48.28712,Daghestan,462.897735595703,NA
3019,Kukvaz,Кукваз,Lezgian,NA,Lezgian,NA,TRUE,Куказ (Коказ),Куказ (Коказ),Коказ,Кукваз,317,324,262,187,41.60103,47.70543,Daghestan,1471.47888183594,NA
1073,Kuker,Кукер,Avar,NA,Avar,NA,TRUE,NA,NA,Кукер,Кукер,NA,NA,74,16,42.43106,46.80982,Daghestan,1260.38891601563,NA
3521,Kukni,Кукни,Lak,NA,Lak,NA,TRUE,Кукни (Кукун),"Кукни (Кукун, Кукнилю)",Кукна,Кукни,456,459,296,66,42.12819,47.15973,Daghestan,1564.72668457031,NA
2157,Kulegu,Кулегу,Dargwa,кайт.,Dargwa,NA,TRUE,Кулегу,"Кулегу (Гулаку, Кулеги)",Кулегу,Кулегу,116,102,107,155,42.07003,47.88401,Daghestan,543.905151367188,NA
851,Kuletsma,Кулецма,Avar,NA,Avar,NA,TRUE,Кулецма,Кулецма,Кулецма,Кулецма,1439,1525,1246,2175,42.5556,47.2339,Daghestan,1368.48461914063,NA
1403,Kuli,Кули,Lak,NA,Lak,NA,TRUE,Кхоли,Кхоли,Коли,Кули,411,405,360,157,42.0227595,47.2387802,Daghestan,1955.77087402344,Кулинский район
3523,Kuli,Кули,Lak,NA,Lak,NA,TRUE,Кули (Кууль),Кулли (Куль),Кули,Кули,2036,2036,2430,3946,42.0227595,47.2387802,Daghestan,1955.77087402344,Кулинский район
1913,Kulibukhna,Кулибухна,Dargwa,цуд.,Dargwa,NA,TRUE,Кхоли-Бухна,Кхоли-Бухна,Коли-Бухна,Кулибухна,356,353,373,407,42.315839,47.18495,Daghestan,1276.86303710938,NA
3169,Kulig,Кулиг,Tabasaran,NA,Tabasaran,NA,TRUE,Кулик,Кулик (Кулюк),Кулиг,Кулиг,128,138,123,120,41.874076,47.865347,Daghestan,1134.1220703125,NA
2251,Kulidzha,Кулиджа,Dargwa,кайт.,Dargwa,NA,TRUE,Кулиджа,Кулиджа (Куледжа),Кулиджа,Кулиджа,259,258,295,403,42.054682,47.772754,Daghestan,927.426330566406,NA
2313,Kulif,Кулиф,Tabasaran,NA,Tabasaran,NA,TRUE,Кулиф (Колюф),"Кулиф (Колюф, Гулиф)",Кулиф,Кулиф,128,133,165,624,41.95955,47.88391,Daghestan,1003.833984375,NA
1669,Kuliyamakhi,Кулиямахи,Dargwa,сирхинско-тантынский,Dargwa,NA,TRUE,Кулая-Махи,Кули-Махи,Кулая-Махи,Кулиямахи,197,217,188,209,42.07717,47.33501,Daghestan,2129.9892578125,NA
943,Kulla,Кулла,Avar,NA,Avar,NA,TRUE,Кула,Кулла (Куллабъ),Кулла,Кулла,557,590,423,27,42.31346,46.91014,Daghestan,1265.73559570313,NA
2053,Kullar,Куллар,North Azerbaijani,NA,Lezgian,NA,FALSE,Куллар (Дербендский),Куллар (Дербентский Куллар),Куллар,Куллар,107,122,122,2314,41.8364,48.3878,Daghestan,53,NA
3641,Kulushats,Кулушац,Lak,NA,Lak,NA,TRUE,Кулишац (Кулушаци),"Кулишац (Кулюшац, Кулишацлю, Кулушаци)",Кулушац,Кулушац,328,339,297,63,42.1283,47.0983,Daghestan,1874.90087890625,NA
3837,Kul'zeb,Кульзеб,Russian,NA,Avar,NA,FALSE,NA,NA,Пельтиевск,Кульзеб,NA,NA,31,2023,43.1686,47.0108,Daghestan,38.169563293457,NA
3541,Kuma,Кума,Lak,NA,Lak,NA,TRUE,Кума (Куми),"Кума (Куми, Кумалю)",Кума,Кума,740,730,447,479,42.27304,47.13762,Daghestan,1264.82287597656,NA
1699,Kumamakhi,Кумамахи,Dargwa,цуд.,Dargwa,NA,TRUE,NA,Куцма-Махи,Кукме,Кумамахи,NA,145,200,397,42.35849,47.19214,Daghestan,1387.82592773438,NA
3525,Kumukh,Кумух,Lak,NA,Lak,NA,TRUE,Кумух (Гумук),Кумух (Кумук),Кумух,Кумух,2900,2872,1659,1931,42.1706,47.1175,Daghestan,1512.73315429688,NA
3597,Kundakh,Кундах,Lak,NA,Lak,NA,TRUE,"Хундаши (Хундах, Хундахю)","Хундах (Хундахи, Хундаши, Хундалю)",Куандаши,Кундах,154,162,91,32,42.10013,47.09148,Daghestan,1810.31286621094,NA
1499,Kundurkhe,Кундурхе,Dargwa,цуд.,Dargwa,NA,TRUE,Кундурхи,Кундурчи-Махи,Ашну-Махи,Кундурхе,192,204,198,376,42.41424,47.11507,Daghestan,1121.42175292969,NA
3533,Kundy,Кунды,Lak,NA,Lak,NA,TRUE,Кунди,Кунди (Кундилю),Кунди,Кунды,1135,1050,771,813,42.2689,47.1647,Daghestan,1498.93237304688,NA
101,Kunzakh,Кунзах,Avar,NA,Avar,NA,TRUE,NA,NA,Кунзах,Кунзах,NA,NA,126,362,42.74884,46.66488,Daghestan,963.1943359375,NA
3537,Kunki,Кунки,Dargwa,кункинский,Dargwa,NA,TRUE,Кумки (Кунки),Кунки (Кумки),Кунки,Кунки,674,674,647,780,41.95923,47.47173,Daghestan,1662.77038574219,NA
1495,Kuppa,Куппа,Dargwa,цуд.,Dargwa,NA,TRUE,Куппа,Куппа,Куппа,Куппа,735,818,870,1459,42.4239,47.1231,Daghestan,1061.45642089844,NA
3149,Kurag,Кураг,Aghul,агульский собственно,Aghul,NA,TRUE,Курах (Кураг),Хюрах (Курах),Кураг,Кураг,260,225,352,420,41.836764,47.661351,Daghestan,1823.28076171875,NA
3157,Kurakh,Курах,Lezgian,NA,Lezgian,NA,TRUE,Курах (Кура),Курах,Курах,Курах,1867,1751,1993,3236,41.5842,47.7842,Daghestan,1339.51025390625,NA
4079,Kurdul,Курдул,Tsakhur,NA,Tsakhur,NA,TRUE,Курдул (Лек),Курдул (Лек),Курдул,Курдул,313,323,205,268,41.581424,47.177309,Daghestan,1880.81872558594,NA
1349,Kurimakhi,Куримахи,Dargwa,сев.,Dargwa,NA,TRUE,Курни-Махи,Б. Курии-Махи,Кури-Махи Н.,Куримахи,92,209,423,1146,42.304306,47.304694,Daghestan,1253.79919433594,NA
1735,Kurkabi,Куркаби,Dargwa,цуд.,Dargwa,NA,TRUE,Куркаба-Махи 2-е,Нижн Хуркаби-Махи,Куркабе-Махи Нижн.,Куркаби,87,68,84,337,42.34194,47.20056,Daghestan,1123.32092285156,NA
2433,Kurkak,Куркак,Tabasaran,NA,Tabasaran,NA,TRUE,Куркак,Куркак (Бюркак),Куркак,Куркак,208,211,275,265,41.91096,47.971699,Daghestan,968.783630371094,NA
3159,Kurkent,Куркент,Lezgian,NA,Lezgian,NA,TRUE,Кюр-кент (Кура-хюр),"Кур-Кент (Кюр-Кент, Кюра-хюра)",Куркент,Куркент,931,896,1136,4074,41.7133,48.1094,Daghestan,593.740051269531,NA
3539,Kurkli,Куркли,Lak,NA,Lak,NA,TRUE,Куркли (Куркул),"Курклю (Куркли, Куркилю, Куркул)",Куркли,Куркли,985,972,619,418,42.2828,47.1283,Daghestan,1306.98937988281,NA
3509,Kurla,Курла,Lak,NA,Lak,NA,TRUE,Курла (Курул),Курла (Курул),Курла,Курла,351,358,262,78,42.19768,47.18731,Daghestan,1849.97424316406,NA
3939,Kurukal,Курукал,Lezgian,NA,Lezgian,NA,TRUE,NA,NA,Крукаль,Курукал,NA,NA,63,880,41.43333,47.6875,Daghestan,1157.70874023438,NA
3981,Kurush,Куруш,Lezgian,NA,Lezgian,NA,TRUE,Куруш,Куруш,Куруш,Куруш,4760,4039,3694,828,41.28083,47.83,Daghestan,2498,NA
3969,Kusur,Кусур,Avar,NA,Avar,NA,TRUE,Кусур,Кусур,Кусур,Кусур,580,518,216,610,41.781293,46.949207,Daghestan,2084.48657226563,NA
955,Kutikh,Кутих,Avar,NA,Avar,NA,TRUE,Кутих,Кутихъ (Кутыхъ),Кутых,Кутих,205,233,114,224,42.12587,46.78902,Daghestan,1737.69897460938,NA
1507,Kutisha,Кутиша,Avar,NA,Avar,NA,TRUE,Кутиша (Кутиши),"Кутиша (Кутиши, Чуули Кутишаросо, Чивахъ-Чуули)",Кутиша,Кутиша,1368,1358,1219,1919,42.4236,47.2831,Daghestan,1483.30798339844,NA
4111,Kutlab,Кутлаб,Avar,NA,Avar,NA,TRUE,Кутлиб (Кутла),Кутлебъ (Кутля),Кутлоб,Кутлаб,306,350,371,1011,42.09663,46.32982,Daghestan,1740.69677734375,NA
3433,Kutul,Кутул,Lezgian,NA,Lezgian,NA,TRUE,Кутуль,Кутул,Кутул,Кутул,370,358,225,195,41.54576,47.9666,Daghestan,996.887756347656,NA
4025,Kufa,Куфа,Rutul,NA,Rutul,NA,TRUE,NA,NA,Куфа,Куфа,NA,NA,82,313,41.564115,47.376937,Daghestan,1372.60388183594,NA
983,Kuchrab,Кучраб,Avar,NA,Avar,NA,TRUE,"Кучра (Кучур, Очур)","Кучра (Кучур, Кучрейми, Очур)",Кучраб,Кучраб,296,313,292,46,42.17506,46.90244,Daghestan,2011.05798339844,NA
3171,Kushtil',Куштиль,Tabasaran,NA,Tabasaran,NA,TRUE,Куштиль (Гоштиль),"Куштил (Констул, Гиштиль)",Куштиль,Куштиль,422,421,389,964,41.8289,47.8894,Daghestan,1233.28662109375,NA
3105,Kchun-Kazmalyar,Кчун-Казмаляр,Lezgian,NA,Lezgian,NA,TRUE,NA,NA,Кучун-Казм.,Кчун-Казмаляр,NA,NA,135,723,41.76261,48.48966,Daghestan,112.605186462402,NA
2135,Kyurek,Кюрек,Tabasaran,NA,Tabasaran,NA,TRUE,Кюрек (Курак. Г-),"Кюрек (Кюраг, Гюраг)",Кюрек,Кюрек,83,67,52,93,41.95258,47.85934,Daghestan,1048.42065429688,NA
2279,Kyuryag,Кюряг,Tabasaran,NA,Tabasaran,NA,TRUE,Кюраг,Кюраг,Кюраг,Кюряг,317,341,291,452,41.907094,47.853636,Daghestan,1140.63952636719,NA
3325,Laka,Лака,Tabasaran,NA,Tabasaran,NA,TRUE,Лака,Ляка (Лака),Лака,Лака,216,219,199,606,41.75705,47.88114,Daghestan,1068.10900878906,NA
4073,Lakun,Лакун,Lezgian,NA,Lezgian,NA,TRUE,Лукун (Лакун),"Лукун (Лакун, Любюн)",Лакун,Лакун,79,81,110,13,41.52402,47.53252,Daghestan,1476.35498046875,NA
3585,Lakhir,Лахир,Lak,NA,Lak,NA,TRUE,Лахир (Лакир),"Лахир (Лакир, Лакирлю)",Лахир,Лахир,341,330,229,44,42.17688,47.17802,Daghestan,1723.89099121094,NA
1075,Lakhchayda,Лахчайда,Avar,NA,Avar,NA,TRUE,NA,NA,Лахчанда,Лахчайда,NA,NA,32,42,42.41345,46.8378,Daghestan,1201.39685058594,NA
1523,Levashi,Леваши,Dargwa,сев.,Dargwa,NA,TRUE,Леваши (Лаваши),"Леваши (Лаваши, Леваша-Куптъ)",Леваши,Леваши,1188,1197,1541,10011,42.4325,47.3258,Daghestan,1219.92749023438,NA
2107,Lidzhe,Лидже,Tabasaran,NA,Tabasaran,NA,TRUE,Лиджа,Лиджа (Люджэ),Лиджа,Лидже,252,261,314,245,41.97245,47.98057,Daghestan,698.634216308594,NA
2321,Lischa,Лища,Dargwa,кайт.,Dargwa,NA,TRUE,Лиша (Лиши),"Лиша (Лиши, Лихали)",Лише,Лища,345,309,339,111,42.072834,47.740462,Daghestan,1181.14672851563,NA
8004,Lologonitl',Лологонитль,NA,NA,Akhvakh,NA,NA,NA,NA,NA,Лологонитль,NA,NA,NA,1457,42.51398,46.33093,Daghestan,1975.88134765625,NA
3983,Lutkun,Луткун,Lezgian,NA,Lezgian,NA,TRUE,Латкун (Луткун),"Луткун (Латкун, Ляткун, Лядкун)",Луткун,Луткун,691,635,608,2790,41.4844,47.6861,Daghestan,1149.05505371094,NA
3985,Luchek,Лучек,Rutul,NA,Rutul,NA,TRUE,Лучек (Лючек),Лучек (Лючек),Лучек,Лучек,494,483,520,478,41.60988,47.307307,Daghestan,1459.64611816406,NA
2315,Lyakhe,Ляхе,Tabasaran,NA,Tabasaran,NA,TRUE,Ляха,Лаха,Ляха,Ляхе,181,184,169,248,41.952293,47.914701,Daghestan,809.831359863281,NA
3163,Lyakhlya,Ляхля,Tabasaran,NA,Tabasaran,NA,TRUE,Ляхля,Ляхля (Ляхлялу),Ляхля,Ляхля,220,210,312,614,41.88087,47.87761,Daghestan,1036.98913574219,NA
1127,Magar,Магар,Avar,NA,Avar,NA,TRUE,Магар,Магар,Магар,Магар,318,340,217,296,42.19546,46.843669,Daghestan,1493.29748535156,NA
3175,Magaramkent,Магарамкент,Lezgian,NA,Lezgian,NA,TRUE,Маграм-кент (Маграмди-хюр),"Магерам-Кент (Магеран-Кент, Маграмди-Хюр)",Магарам-Кент,Магарамкент,369,312,494,6951,41.6186,48.3514,Daghestan,356.128631591797,NA
4147,Magitl',Магитль,Avar,NA,Avar,NA,TRUE,Мегитль,Мегитль,Магитль,Магитль,93,85,41,21,42.248081,46.366738,Daghestan,1526.85803222656,NA
2335,Madzhalis,Маджалис,Kumyk,NA,Dargwa,NA,FALSE,Маджалис (Манжис),"Маджалис (Манджлис, Манджис, Манжие)",Маджалис,Маджалис,1481,1422,927,6820,42.1217,47.8333,Daghestan,408.485809326172,NA
4169,Mazada,Мазада,Avar,NA,Avar,NA,TRUE,Мазада,Мазада,Мазада,Мазада,44,36,40,196,42.197896,46.390092,Daghestan,1520.76599121094,NA
2443,Mallakent,Маллакент,Dargwa,муиринский,Dargwa,NA,TRUE,Молла-кент (Молла-махи),Молла-Кент (Молла-Махи),Мулла Кент,Маллакент,132,141,125,260,42.17448,47.79664,Daghestan,491.374847412109,NA
2243,Mamaaul,Мамааул,Dargwa,сев.,Dargwa,NA,TRUE,Маммаул,Маммаул,Мамаул,Мамааул,233,237,220,615,42.31709,47.75237,Daghestan,510.834533691406,NA
853,Manasaul,Манасаул,Avar,NA,Avar,NA,TRUE,Манас-аул,Манас-аул,Манас-Аул,Манасаул,223,269,496,629,42.7575,47.0397,Daghestan,825.83642578125,NA
3791,Manaskent,Манаскент,Kumyk,NA,Kumyk,NA,TRUE,NA,NA,Манас-Кент,Манаскент,NA,NA,203,4995,42.7367,47.6958,Daghestan,36.263484954834,NA
2079,Maraga,Марага,North Azerbaijani,NA,North Azerbaijani,NA,TRUE,Марага,Марага,Марага,Марага,1791,1812,1933,1794,41.9633,48.1208,Daghestan,444.72998046875,NA
8210,Makhalotli,Махалотли,NA,NA,Tsez,NA,NA,NA,NA,NA,Махалотли,NA,NA,NA,332,42.297776,45.796291,Daghestan,2028.25830078125,NA
1215,Machada,Мачада,Avar,NA,Avar,NA,TRUE,Мачада,Мачада,Мочада,Мачада,551,515,503,429,42.37839,46.53725,Daghestan,1676.37048339844,Шамильский район
4283,Machar,Мачар,Avar,NA,Avar,NA,TRUE,Мачар,Мачаръ (Мачада),Могар,Мачар,93,105,46,101,42.206556,46.335204,Daghestan,1998.26000976563,NA
2159,Mashaty,Машаты,Dargwa,кайт.,Dargwa,NA,TRUE,Машати,"Машати (Мешати, Машанти)",Машати,Машаты,271,283,286,185,42.05398,47.88286,Daghestan,635.000854492187,NA
391,Mashtada,Маштада,Karata,карат.,Karata,NA,TRUE,NA,NA,Маштада,Маштада,NA,NA,152,267,42.61362,46.314659,Daghestan,1225.33544921875,NA
1147,Megeb,Мегеб,Dargwa,мегеб,Dargwa,NA,TRUE,Меге,"Меге (Могебъ, Мого, Могалъ)",Могоб,Мегеб,727,762,710,702,42.2528,47.0472,Daghestan,1712.15393066406,NA
3083,Mezhgyul',Межгюль,Tabasaran,NA,Tabasaran,NA,TRUE,Мюжгюл (Мажгюл),Межгюл (Мажгюл),Межгюль,Межгюль,701,698,792,1217,41.8061,48.0075,Daghestan,1069.59814453125,NA
1537,Mekegi,Мекеги,Dargwa,сев.,Dargwa,NA,TRUE,Мекеге,Мекеге,Мекеге,Мекеги,3866,2624,2550,2931,42.3978,47.4625,Daghestan,1344.53491210938,NA
433,Mesterukh,Местерух,Avar,NA,Avar,NA,TRUE,Местерух,Местерухъ,Местерух,Местерух,492,504,585,1009,42.5747,46.3964,Daghestan,1550.97204589844,NA
4719,Metrada,Метрада,Avar,NA,Avar,NA,TRUE,Митрода (Митерата),"Митрода (Митрада, Митералъ)",Метрада,Метрада,188,222,254,550,42.393034,45.888954,Daghestan,1879.51977539063,NA
1535,Meusisha,Меусиша,Dargwa,муиринский,Dargwa,NA,TRUE,Меусиша,Меусиша,Медсиша,Меусиша,1454,1380,1408,1377,42.20199,47.59731,Daghestan,1537.7890625,NA
435,Mekhel'ta,Мехельта,Avar,NA,Avar,NA,TRUE,Мехельта,"Мехельта (Мехель, Метлельта)",Мехельта,Мехельта,1873,10171,1917,3309,42.798277,46.497361,Daghestan,1487.85815429688,NA
8020,Mekheturi,Мехетури,NA,NA,Andi,NA,NA,NA,NA,NA,Мехетури,NA,NA,NA,33,42.70556,46.2375,Daghestan,1194.90844726563,NA
437,Miarso,Миарсо,Botlikh,NA,Botlikh,NA,TRUE,"Миарсу (Миарса, Маерса)","Миарсу (Миарса, Миарс, Миесъ)",Миарсо,Миарсо,278,282,276,1714,42.654059,46.175643,Daghestan,825.147644042969,NA
1609,Miglakasimakhi,Миглакасимахи,Dargwa,сев.,Dargwa,NA,TRUE,NA,Мигла-Каси,Мекла-Каси,Миглакасимахи,NA,375,529,535,42.33599,47.56121,Daghestan,1142.96911621094,NA
4035,Midzhakh,Миджах,Lezgian,NA,Lezgian,NA,TRUE,Миджах (Мичаг),Миджах (Мичах),Миджах,Миджах,460,442,250,152,41.395434,47.6411,Daghestan,1314.98876953125,NA
2259,Mizhigli,Мижигли,Dargwa,кайт.,Dargwa,NA,TRUE,Мижгели,Мижгели (Мижгили),Мижгели,Мижигли,202,188,195,383,42.0697,47.79989,Daghestan,593.984130859375,NA
4081,Mikikh,Микик,Tsakhur,NA,Tsakhur,NA,TRUE,Михик (Михих),Михик (Михих),Михих,Микик,290,296,258,533,41.63753,47.16822,Daghestan,1640.09875488281,в википедии и на картах Микик
1437,Mirzita,Мирзита,Dargwa,сирхинско-тантынский,Dargwa,NA,TRUE,Мирзадти,Мирзадты,Мирзидта,Мирзита,209,207,162,372,42.1309,47.47663,Daghestan,1572.99951171875,NA
3359,Misi,Миси,Aghul,агульский собственно,Aghul,NA,TRUE,Миси,Миси,Миса,Миси,213,235,231,285,41.80991,47.60329,Daghestan,1813.03881835938,NA
3995,Miskindzha,Мискинджа,Lezgian,NA,Lezgian,NA,TRUE,Мискинджа (Мискиск),Мискинджа (Мискиск),Мискинджа,Мискинджа,2833,2753,1821,3518,41.4242,47.8428,Daghestan,1025.54614257813,NA
2081,Mitagi,Митаги,North Azerbaijani,NA,North Azerbaijani,NA,TRUE,Митаги,Митаги,Митаги,Митаги,769,781,548,648,42.01736,48.19083,Daghestan,643.211975097656,NA
2083,Mitagi-Kazmalyar,Митаги-Казмаляр,North Azerbaijani,NA,North Azerbaijani,NA,TRUE,NA,NA,Митаги Верх.,Митаги-Казмаляр,NA,NA,186,1177,42.035494,48.204804,Daghestan,296.660949707031,"Митаги Верх., объединены?"
2085,Mitagi-Kazmalyar,Митаги-Казмаляр,North Azerbaijani,NA,North Azerbaijani,NA,TRUE,NA,NA,Митаги Нижн.,NA,NA,NA,90,NA,42.035494,48.204804,Daghestan,296.660949707031,"Митаги Верх., объединены?"
1207,Mitliurib,Митлиуриб,Avar,NA,Avar,NA,TRUE,NA,NA,Митлигоро,Митлиуриб,NA,NA,438,687,42.43537,46.68836,Daghestan,1664.50366210938,NA
4723,Mitluda,Митлуда,Tsez,сагадинский,Tsez,NA,TRUE,NA,NA,Метлуда,Митлуда,NA,NA,78,41,42.36693,45.94512,Daghestan,2084.59545898438,NA
4003,Mishlesh,Мишлеш,Tsakhur,NA,Tsakhur,NA,TRUE,Мишлеш,Мшилеш (Мшилет),Мишлеш,Мишлеш,732,681,585,1181,41.6649,47.089775,Daghestan,1736.46899414063,NA
985,Mogrob,Могроб,Avar,NA,Avar,NA,TRUE,Мугра (Муграйми),Мугра (Муграйми),Могроб,Могроб,110,109,90,16,42.15672,46.86521,Daghestan,1958.77600097656,NA
1015,Mokoda,Мокода,Avar,NA,Avar,NA,TRUE,NA,NA,Мокада,Мокода,NA,NA,90,100,42.42385,46.66963,Daghestan,1630.724609375,NA
4711,Mokok,Мокок,Tsez,цезский,Tsez,NA,TRUE,Мокок (Мукок),Мококъ (Мококи),Макок,Мокок,298,318,122,489,42.2619,45.9008,Daghestan,1615.97814941406,NA
1199,Moksob,Моксоб,Avar,NA,Avar,NA,TRUE,Моксоб,Моксоб,Моксоб,NA,256,244,324,NA,43.434004,46.48603,Daghestan,25.188045501709,NA
127,Moksokh,Моксох,Avar,NA,Avar,NA,TRUE,Моксок,Моксокъ (Моксохъ),Моксок,Моксох,309,309,241,220,42.6538,46.80572,Daghestan,1734.06005859375,NA
1959,Mollakent,Моллакент,Lezgian,NA,Lezgian,NA,TRUE,Молла-кент,Молла-Кент,Молла-Кент,Моллакент,40,36,79,1020,41.9233,48.3864,Daghestan,-16.0999698638916,NA
133,Mochokh,Мочох,Avar,NA,Avar,NA,TRUE,Мочох,Мочохъ,Мочох,Мочох,420,418,372,399,42.63159,46.61242,Daghestan,1638.51086425781,NA
1149,Moschob,Мощоб,Avar,NA,Avar,NA,TRUE,Машаб,"Мошоб (Машал, Мушоб)",Мошаб,Мощоб,139,155,175,24,42.21389,46.79167,Daghestan,2301.80810546875,NA
2089,Mugarty,Мугарты,North Azerbaijani,NA,North Azerbaijani,NA,TRUE,Мугатыр,Мугатыр (Мигатыр),Мугатыр,Мугарты,934,953,871,1616,41.9947,48.1614,Daghestan,442.192016601563,NA
1081,Mugdab,Мугдаб,Avar,NA,Avar,NA,TRUE,NA,NA,Мучтаб,Мугдаб,NA,NA,58,97,42.420445,46.807523,Daghestan,1234.60693359375,NA
3197,Mugergan,Мугерган,Lezgian,NA,Lezgian,NA,TRUE,NA,NA,Мугерган-Казм.,Мугерган,NA,NA,341,1539,41.519797,48.175977,Daghestan,576.883544921875,NA
1565,Mugi,Муги,Dargwa,сев.,Dargwa,NA,TRUE,Муги,"Муги (Мухи, Меге, Мугя)",Муги,Муги,2649,2347,1950,3372,42.2989,47.4225,Daghestan,1518.06481933594,NA
1583,Mugri,Мугри,Dargwa,сев.,Dargwa,NA,TRUE,Мугри,Мугри,Мугри,Мугри,680,675,750,0,42.26767,47.62872,Daghestan,1161.45446777344,NA
1275,Mugurukh,Мугурух,Avar,NA,Avar,NA,TRUE,Мугурух (Мугурак),"Мугурух (Мугурукъ, Мугуракъ, Маграл)",Мугурух,Мугурух,287,291,274,317,42.26064,46.86533,Daghestan,1733.83569335938,NA
8056,Muzaim,Музаим,NA,NA,North Azerbaijani,NA,NA,NA,NA,NA,Музаим,NA,NA,NA,1947,41.90837,48.29136,Daghestan,41.2000999450684,NA
3569,Mukar,Мукар,Lak,NA,Lak,NA,TRUE,Мугарх (Мукар),"Мукар (Мукарлю, Мукарх)",Мукар,Мукар,347,345,249,220,42.20687,47.02212,Daghestan,1667.02294921875,NA
1133,Mukutl',Мукутль,Avar,NA,Avar,NA,TRUE,Мукутль,Мукутль,Мукутль,Мукутль,164,166,188,94,42.19562,46.861381,Daghestan,1776.84460449219,NA
439,Muni,Муни,Andi,нижне-андийский,Andi,NA,TRUE,Муни,Муни,Муни,Муни,911,748,583,3220,42.680242,46.308874,Daghestan,714.581481933594,NA
1153,Murada,Мурада,Avar,NA,Avar,NA,TRUE,Дарада-Мурада,Дарада-Мурада,Мурада,Мурада,1370,835,194,1558,42.445422,46.954469,Daghestan,1229.65209960938,NA
1619,Murguk,Мургук,Dargwa,сев.,Dargwa,NA,TRUE,Мургук,Мургук,Мугрук,Мургук,1150,1085,876,1653,42.2669,47.6947,Daghestan,881.473876953125,NA
1673,Murlatinamakhi,Мурлатинамахи,Dargwa,сирхинско-тантынский,Dargwa,NA,TRUE,Мурлатына-Махи,Муртузани-Махи,Мурлати-Махи,Мурлатинамахи,30,33,25,28,42.08451,47.35718,Daghestan,1846.57104492188,NA
965,Murukh,Мурух,Avar,NA,Avar,NA,TRUE,Мурух,Мурухъ,Мурух,Мурух,59,58,69,82,42.27719,46.7715,Daghestan,1780.49597167969,NA
4009,Muslakh,Муслах,Tsakhur,NA,Tsakhur,NA,TRUE,Мислах (Мусляг),Муслах (Мусляг),Муслах,Муслах,535,532,392,612,41.65889,47.11185,Daghestan,1890.76770019531,NA
1173,Musrukh,Мусрух,Avar,NA,Avar,NA,TRUE,Мусрух,Мусрухъ,Мусрух,Мусрух,143,122,144,93,42.32897,46.51614,Daghestan,1758.40612792969,NA
1705,Musul'temakhi,Мусультемахи,Dargwa,цуд.,Dargwa,NA,TRUE,NA,Мусалти-Махи,Мусульте,Мусультемахи,NA,202,221,483,42.362154,47.188584,Daghestan,1368.55627441406,NA
8194,Mukharkh,Мухарх,NA,NA,Tindi,NA,NA,NA,NA,NA,Мухарх,NA,NA,NA,52,42.459302,46.15171,Daghestan,1870.43481445313,NA
3971,Mukhakh,Мухах,Tsakhur,NA,Tsakhur,NA,TRUE,Мухах,Мухах,Мухох,Мухах,229,232,43,233,41.70068,46.991105,Daghestan,2094.25024414063,NA
135,Muschuli,Мушули,Avar,NA,Avar,NA,TRUE,Мусшул,Мусшуль (Мусшули),Мушули,Мушули,300,294,324,571,42.633706,46.498593,Daghestan,1024.61657714844,в википедии и на картах Мушули
2349,Myurego,Мюрего,Dargwa,сев.,Dargwa,NA,TRUE,Мюраго (Мурега),"Мюрага (Мюраго, Мурега)",Мюреги,Мюрего,2760,2678,2351,4225,42.4042,47.6894,Daghestan,532.370239257812,NA
4011,Myukhrek,Мюхрек,Rutul,NA,Rutul,NA,TRUE,Михрек (Мих-рак),Михрек (Михрак),Мюхрек,Мюхрек,694,697,382,191,41.667696,47.280013,Daghestan,1729.51879882813,NA
4113,Nadar,Надар,Avar,NA,Avar,NA,TRUE,Надар,Надаръ (Надиръ),Надар,Надар,85,74,29,176,42.09736,46.36025,Daghestan,1574.46862792969,NA
1195,Nakazukh,Наказух,Avar,NA,Avar,NA,TRUE,NA,NA,Наказутль,Наказух,NA,NA,190,136,42.264594,46.914238,Daghestan,2003.31921386719,NA
1627,Naskent,Наскент,Dargwa,сев.,Dargwa,NA,TRUE,Наскент,Наскент,Наскент,Наскент,1065,1012,956,2951,42.38093,47.33624,Daghestan,1352.22595214844,NA
4225,Nakhada,Нахада,Hunzib,NA,Hunzib,NA,TRUE,Нахада,Накада,Нахада,Нахада,238,266,115,486,42.14406,46.19143,Daghestan,1932.08654785156,NA
1629,Nakhki,Нахки,Dargwa,сирхинско-тантынский,Dargwa,NA,TRUE,Нахки,Нахки,Нахки,Нахки,415,411,263,417,42.07562,47.39905,Daghestan,1683.02734375,NA
1663,Natsi,Наци,Dargwa,сирхинско-тантынский,Dargwa,NA,TRUE,"Нацы (Неци, Нуцали)","Нацы (Наци, Неци)",Наци,Наци,443,167,151,150,42.075335,47.38728,Daghestan,1784.84301757813,NA
3853,Nechaevka,Нечаевка,Russian,NA,Chamalal,NA,FALSE,NA,Хутор Нечаева,Ново-Ничаево,Нечаевка,NA,170,215,4783,43.2703,46.9131,Daghestan,8.79693508148193,NA
395,Nizhnee Inkhelo,Нижнее Инхело,Karata,NA,Karata,NA,TRUE,"Инхели (Энхели) Нижнее (Кетле-инхили, Гортле-Инхели)","Нижнее Энхели (Кертле-Энхели, Гортль Энхели)",Инхело Нижн.,Нижнее Инхело,434,436,492,2111,42.645134,46.259367,Daghestan,748.603271484375,NA
401,Nizhnee Inkho,Нижнее Инхо,Avar,NA,Avar,NA,TRUE,Инхо нижнее (Гортль-инху),"Нижнее-Инхо (Гортль-Инхо, Инху)",Инхо Нижн.,Нижнее Инхо,558,557,477,1343,42.704518,46.507752,Daghestan,558.6376953125,NA
745,Nizhnee Kazanische,Нижнее Казанище,Kumyk,NA,Kumyk,NA,TRUE,Казанищи большие нижние,"Казанищи Большие, Нижние (Тюменги-Казаныш)",Казанище Н.,Нижнее Казанище,4652,4926,4843,12865,42.7644,47.1611,Daghestan,572.802368164063,NA
1521,Nizhnie Labkomakhi,Нижнее Лабкомахи,Dargwa,сев.,Dargwa,NA,TRUE,NA,Нижн. Лапко-Махи,Лапко-Махи Нижн.,Нижнее Лабкомахи,NA,416,325,365,42.35084,47.41873,Daghestan,1567.48010253906,"в википедии Нижнее Лабкомахи, на картах Нижние Лабкомахи"
1863,Nizhnie Makhargimakhi,Нижнее Махаргимахи,Dargwa,сев.,Dargwa,NA,TRUE,NA,Нижн. Магарги-Махи,Магарги Нижн.,Нижнее Махаргимахи,NA,214,316,330,42.33047,47.63788,Daghestan,952.410339355469,"в википедии Нижнее Махаргимахи, на картах Нижние Махаргимахи"
1597,Nizhnie Mulebki,Нижнее Мулебки,Dargwa,сев.,Dargwa,NA,TRUE,Нижние Мулебки,Нижн. Мулебки (Убахъ-Мулебки),Мулебки Н.,Нижнее Мулебки,2511,632,563,440,42.3281,47.5689,Daghestan,1258.66857910156,"в википедии Нижнее Мулебки, на картах Нижние Мулебки"
1923,Nizhnie Chugli,Нижнее Чугли,Avar,NA,Avar,NA,TRUE,Чогли,"Чоглы (Тюмень-Чогль, Нижн., Гортль-Чуули)",Чоглы,Нижнее Чугли,583,559,702,1534,42.46318,47.29733,Daghestan,1253.53918457031,"в википедии Нижнее Чугли, на картах Нижние Чугли"
311,Nizhnie Gakvari,Нижние Гаквари,Chamalal,NA,Chamalal,NA,TRUE,"Гакуари (Акори, Акуа-Гантла)","Гаквари (Гакуари, Акори, Акуа-Гантла)",Нижн. Гаквари,Нижнее Гаквари,1179,1303,396,497,42.53602,46.05171,Daghestan,1625.3076171875,"в википедии Нижнее Гаквари, на картах Нижние Гаквари"
4733,Nizhnie Khvarshini,Нижние Хваршини,Avar,NA,Avar,NA,TRUE,Хоршини нижн. (Горть-Коаршини),"Нижние Хваршины (Хоршни, Гортль-Коаршини)",Н. Хваршины,Нижнее Хваршини,289,333,312,372,42.4108,45.8697,Daghestan,1742.31286621094,NA
171,Nizhniy Aradirikh,Нижний Арадирих,Avar,NA,Avar,NA,TRUE,Харадерик нижний (Гортль-Харадерик),Нижний Харадырикъ (Гортло Х.),Н. Харадырых,Нижний Арадирих,156,148,161,309,42.68979,46.568219,Daghestan,1751.45910644531,NA
1901,Nizhnie Arshi,Нижний Арши,Dargwa,цуд.,Dargwa,NA,TRUE,NA,Арша-Махи,Арша-Махи,Нижний Арши,NA,223,224,550,42.389598,47.141386,Daghestan,1164.00036621094,"в википедии Нижний Арши, на картах Нижние Арши"
61,Nizhniy Batlukh,Нижний Батлух,Avar,NA,Avar,NA,TRUE,Бактлук нижний (Горль-Бактлук),"Нижний-Бахлух (Н. Бактлукъ, Гортль)",Бактлух нижн.,Нижний Батлух,469,571,577,1332,42.4853,46.5239,Daghestan,1454.9970703125,NA
8065,Nizhniy Dzhalgan,Нижний Джалган,NA,NA,North Azerbaijani,NA,NA,NA,NA,NA,Нижний Джалган,NA,NA,NA,2841,41.99007,48.31898,Daghestan,0.528277337551117,NA
703,Nizhniy Dzhengutay,Нижний Дженгутай,Kumyk,NA,Kumyk,NA,TRUE,Джентугай нижний,"Дженгутай Большой, Нижний (Тюменги-Дженгутай, по-кумыкски Нижний Дженгутай, Гортль-Жунгут, по-аварски Нижний Дженгутай)",Дженгутай Н.,Нижний Дженгутай,4733,4314,4264,7517,42.7014,47.2417,Daghestan,625.9912109375,NA
709,Nizhnie Ishkarty,Нижний Ишкарты,Kumyk,NA,Kumyk,NA,TRUE,Ишкарты,Ишкарты,Ишкарты,Нижнее Ишкарты,631,551,539,1002,42.84698,46.97147,Daghestan,815.533447265625,"в википедии Нижнее Ишкарты, на картах Нижние Ишкарты"
823,Nizhniy Karanay,Нижний Каранай,Avar,NA,Avar,NA,TRUE,Каранай нижний,Каранай Нижний (Старый),Каранай Ниж.,Нижний Каранай,658,659,462,192,42.84729,46.940488,Daghestan,906.682434082031,NA
1649,Nizhniy Karshli,Нижний Каршли,Dargwa,сирхинско-тантынский,Dargwa,NA,TRUE,Каршула-Махи,NA,Каршила-Махи Нижн.,Нижний Каршли,246,NA,67,85,42.049911,47.343884,Daghestan,1856.35095214844,NA
