koryakov_bd_id,eng_vil_name,rus_vil_name,lang_1_K,lang_2_K,lang_1_S,lang_2_S,same_languages,name_1885,name_1895,name_1926,name_2010,census_1885,census_1895,census_1926,census_2010,Lat,Lon,Republic,Region,elevation,LevK_comments,Region_K,lat_K,lon_K
1,,Махачкала,Russian,,,,,,,Махач-Кала (б.Петровск-Порт),Махачкала,,,16086,570845,,,Daghestan,Махачкала,,,Махачкала,42.96667,47.48333
3,,Петровск-Кавказский,Russian,,,,,,,Петровск-Кавказский,,,,1303,,,,Daghestan,Махачкала,,,Махачкала,43.000745,47.467117
5,,Дербент,North Azerbaijani,,,,,,,Дербент,Дербент,,,7831,118599,,,Daghestan,Дербентский,,,Дербентский,42.06917,48.29583
7,,Дагестанские Огни,Russian,,,,,,,Дагестанские Огни,,,,289,,,,Daghestan,Дагестанские Огни,,?город,Дагестанские Огни,42.11667,48.2
7,,Дагестанские Огни,Russian,,,,,,,Дагестанские Огни,,,,289,,,,Daghestan,Дагестанские Огни,,"?заводской поселок, впоследствии ставший городом",Дагестанские Огни,42.11667,48.2
9,,Буйнакск,Russian,,,,,,,Буйнакск (б. Темир-Хан-Шура),Буйнакск,,,3046,58625,,,Daghestan,Буйнакский,,,Буйнакский,42.816667,47.116667
15,Amishta,Амишта,Avar,,Avar,,TRUE,Амишта (Гамишта),Амишта (Гамишта),Амишта,Амишта,122,141,135,129,42.62967,46.552971,Daghestan,Хунзахский,1484.29345703125,,Хунзахский,,
17,Dzhalaturi,Джалатури,Avar,,Avar,,TRUE,Джалатлури (Жалатлуру),Джалатрури (Жалатруи),Джалатлури,Джалатури,169,190,160,82,42.631847,46.567028,Daghestan,Хунзахский,1732.36254882812,,Хунзахский,42.631847,46.567028
19,Tsalkita,Цалкита,Avar,,Avar,,TRUE,Цалкита,Цалкита,Цалкита,Цалкита,102,97,104,108,42.61798,46.57339,Daghestan,Хунзахский,1598.41259765625,,Хунзахский,42.61798,46.57339
21,Amushi Bol'shoe,Амущи Большое,Avar,,Avar,,TRUE,Амуши-большие (Бакта-Гамуши),Амуши Большие (Бакта Амуши),Амуши больш.,Амущи Большое,581,550,551,1510,42.63752,46.4864,Daghestan,Хунзахский,1033.43017578125,,Хунзахский,,
23,Amushi Maloe,Амущи Малое,Avar,,Avar,,TRUE,Амуши малые  (Хунда-Амуши),Амуши Малые (Хунда Амуши),Амуши малый,Амущи Малое,159,137,187,126,42.650445,46.487815,Daghestan,Хунзахский,825.459167480469,,Хунзахский,,
25,Andykh,Андых,Avar,,Avar,,TRUE,Андик (Хандик),Андых (Андикъ),Андых,Андых,557,595,602,971,42.5119,46.5939,Daghestan,Шамильский,1528.25048828125,,Шамильский,,
27,Arakani,Аракани,Avar,,Avar,,TRUE,Араканы (Харакуни),Араканы (Харакуни),Араканы,Аракани,1050,1190,882,1638,42.610078,46.991711,Daghestan,Унцукульский,858.093566894531,,Унцукульский,,
29,,Казакин-Бак,Avar,,,,,,,Казакин-Бак,,,,27,,,,Daghestan,Унцукульский,,,Унцукульский,,
31,,Керекуб-Бак,Avar,,,,,,,Керекуб-Бак,,,,66,,,,Daghestan,Унцукульский,,,Унцукульский,,
33,Urchiab,Урчиаб,Avar,,Avar,,TRUE,,,Урчиаб-Кал,Урчиаб,,,75,0,42.657739,47.016338,Daghestan,Унцукульский,1262.67004394531,,Унцукульский,42.657739,47.016338
35,Akhalchi,Ахалчи,Avar,,Avar,,TRUE,Ахальчи,"Ахальчи (Нижний Большой и Верхний Малый А., Горль и Таса Тад А.)",Ахалчи,Ахалчи,894,843,502,734,42.594957,46.631744,Daghestan,Хунзахский,1839.25402832031,,Хунзахский,,
37,Kolo,Коло,Avar,,Avar,,TRUE,,,Коло,,,,63,,42.65769,46.56607,Daghestan,Хунзахский,1000.58825683594,?,Хунзахский,,
37,,Коло,Avar,,,,,,,Коло,,,,63,,,,Daghestan,Хунзахский,,?,Хунзахский,,
39,Verkhnie Akhalchi,Верхние Ахалчи,Avar,,Avar,,TRUE,,,Тад-Ахалчи,,,,139,,42.59911,46.63581,Daghestan,Хунзахский,1862.80895996094,,Хунзахский,42.599219,46.63507
41,Tumagari,Тумагари,Avar,,Avar,,TRUE,,,Тума-Гари,Тумагари,,,104,79,42.58165,46.60662,Daghestan,Хунзахский,1861.94750976563,,Хунзахский,42.58165,46.60662
43,,Химаколо,Avar,,,,,,,Химаколо,,,,45,,,,Daghestan,Хунзахский,,,Хунзахский,"42,589299° 46,617260°",
45,Ashil'ta,Ашильта,Avar,,Avar,,TRUE,Ашильта (Ашель),Ашильта (Ашель),Ашильта,Ашильта,443,478,586,1982,42.772446,46.728853,Daghestan,Унцукульский,640.283020019531,,Унцукульский,,
47,Baitl',Баитль,Avar,,Avar,,TRUE,Баитль,Баитль,Бойтли,Баитль,165,176,144,202,42.546452,46.676472,Daghestan,Хунзахский,1783.91552734375,,Хунзахский,,
49,Chondotl',Чондотль,Avar,,Avar,,TRUE,Чондотль,Чондо(а)тль,Чондотль,Чондотль,185,199,202,151,42.547749,46.659112,Daghestan,Хунзахский,1907.65844726563,,Хунзахский,42.547749,46.659112
51,Batlaich,Батлаич,Avar,,Avar,,TRUE,Батлаич,Батлаичъ (Батлагичъ),Батлаич,Батлаич,772,788,770,1083,42.554821,46.754217,Daghestan,Хунзахский,1764.73999023438,,Хунзахский,,
53,Balakhani,Балахани,Avar,,Avar,,TRUE,Балакани (Балахани),Балаканы (Балаханы),Балаханы,Балахани,898,904,1000,2166,42.63128,46.89514,Daghestan,Унцукульский,889.520141601563,,Унцукульский,,
55,Zirani,Зирани,Avar,,Avar,,TRUE,Зирани,"Зирани, Зираны",Зирани,Зирани,154,160,188,65,42.61797,46.94436,Daghestan,Унцукульский,543.17236328125,,Унцукульский,42.61797,46.94436
57,Shulatuta,Шулатута,Avar,,Avar,,TRUE,Шулатль (Шулатлута),Шалутль (Шулатлута),Шулатлута,Шулатута,56,64,89,0,42.63167,46.85806,Daghestan,Унцукульский,1565.41162109375,,Унцукульский,42.63167,46.85806
59,Verkhniy Batlukh,Верхний Батлух,Avar,,Avar,,TRUE,Бактлук верхний (Таса-Бактлук),Верхний Бахлухъ (Таса),Бактлух верх.,Верхний Батлух,234,239,268,455,42.496276,46.502217,Daghestan,Шамильский,1591.95349121094,,Шамильский,,
61,Nizhniy Batlukh,Нижний Батлух,Avar,,Avar,,TRUE,Бактлук нижний (Горль-Бактлук),"Нижний-Бахлух (Н. Бактлукъ, Гортль)",Бактлух нижн.,Нижний Батлух,469,571,577,1332,42.4853,46.5239,Daghestan,Шамильский,1454.9970703125,,Шамильский,42.4853,46.5239
63,Betli,Бетли,Avar,,Avar,,TRUE,Бетль,Бетль (Бетлитль),Бетль,Бетли,311,335,283,18,42.72372,46.73388,Daghestan,Унцукульский,1770.96838378906,,Унцукульский,,
65,Kakhabroso,Кахабросо,Avar,,Avar,,TRUE,Кахаб-росо (Ахкент),"Кахабъ-Росо (Кахаросъ, Ахкентъ)",Кахиб-Росо,Кахабросо,345,341,311,796,42.73896,46.704697,Daghestan,Унцукульский,1752.86315917969,,Унцукульский,42.73896,46.704697
67,Butsra,Буцра,Avar,,Avar,,TRUE,Буцра,Бурца,Буцра,Буцра,682,675,614,1429,42.58902,46.7677,Daghestan,Хунзахский,1599.2099609375,,Хунзахский,42.58902,46.7677
69,,разв. Шагада,Avar,,,,,Шагада,Шагада (Шахада),Шагода,,263,279,185,,,,Daghestan,Хунзахский,,,Хунзахский,42.616,46.758
71,,Шого,Avar,,,,,,,Шого,,,,52,,,,Daghestan,Хунзахский,,,Хунзахский,,
73,Gatsalukh,Гацалух,Avar,,Avar,,TRUE,Гоцалух (Ацалух),Гоцалухъ (Ацалухъ),Гацалух,Гацалух,340,364,363,473,42.59298,46.64949,Daghestan,Хунзахский,1871.66149902344,,Хунзахский,42.59298,46.64949
75,,Гимры,Avar,,,,,Гимры (Гену),Гимры (Гену),Гимры,Гимры,1130,1125,1156,4651,,,Daghestan,Унцукульский,,,Унцукульский,42.757219,46.838739
77,Genichutl',Геничутль,Avar,,Avar,,TRUE,Геничутль,Геничутль,Гиничутль,Геничутль,426,457,261,315,42.56455,46.73959,Daghestan,Хунзахский,1772.45178222656,,Хунзахский,42.56455,46.73959
79,,Итля,Avar,,,,,Итли,Итля,Итля,,138,153,115,,,,Daghestan,Хунзахский,,,Хунзахский,,
81,Golotl',Голотль,Avar,,Avar,,TRUE,Голотль,Голотль,Голотль,Голотль,714,735,700,1493,42.485962,46.735698,Daghestan,Шамильский,803.010375976563,,Шамильский,42.485962,46.735698
83,Gonokh,Гонох,Avar,,Avar,,TRUE,Гонох,Гонохъ,Гонох,Гонох,174,172,196,373,42.56163,46.6896,Daghestan,Хунзахский,1709.26733398438,,Хунзахский,,
85,Tsada,Цада,Avar,,Avar,,TRUE,Цада,Цада,Цада,Цада,173,189,185,190,42.56694,46.7125,Daghestan,Хунзахский,1715.98889160156,,Хунзахский,42.56694,46.7125
87,Gortkolo,Гортколо,Avar,,Avar,,TRUE,Гортль-коло,Гортль Коло,Гортколо,Гортколо,270,272,231,241,42.576655,46.63945,Daghestan,Хунзахский,1791.60681152344,,Хунзахский,42.576655,46.63945
89,,Ассаколо,Avar,,,,,,,Ассаколо,,,,27,,,,Daghestan,Хунзахский,,,Хунзахский,,
91,,Гозолоколо,Avar,,,,,Гозоло-коло,Гозоло-Коло,Газолоколо,Гозолоколо,153,146,167,162,,,Daghestan,Хунзахский,,,Хунзахский,42.569344,46.612148
93,Gotsatl' Bol'shoy,Гоцатль Большой,Avar,,Avar,,TRUE,Гоцатль,"Гоцатль (Старый, Большой, Гортль Гоцатль, Малый, Новый Гоцатль, Таса Гоцатль)",Гоцатль Бол.,Гоцатль Большой,1028,1089,935,2189,42.51862,46.88262,Daghestan,Хунзахский,933.886352539063,,Хунзахский,42.51862,46.88262
95,Gotsatl' Malyy,Гоцатль Малый,Avar,,Avar,,TRUE,,,Гоцатль Мал.,Гоцатль Малый,,,224,581,42.5041,46.88829,Daghestan,Хунзахский,863.846008300781,,Хунзахский,42.5041,46.88829
97,Chalda,Чалда,Avar,,Avar,,TRUE,,,Чалда,Чалда,,,103,302,42.538206,46.920351,Daghestan,Гергебильский,646.712768554688,,Гергебильский,42.538206,46.920351
99,Igali,Игали,Avar,,Avar,,TRUE,Игали,Игали (Ихали),Игали,Игали,1138,1135,852,2558,42.7181,46.5811,Daghestan,Гумбетовский,623.298461914063,,Гумбетовский,42.7181,46.5811
101,Kunzakh,Кунзах,Avar,,Avar,,TRUE,,,Кунзах,Кунзах,,,126,362,42.74884,46.66488,Daghestan,Гумбетовский,963.1943359375,,Гумбетовский,42.74884,46.66488
103,,Тланхлоры,Avar,,,,,,,Тланхлоры,,,,125,,,,Daghestan,Гумбетовский,,,Гумбетовский,,
105,Tsanatl',Цанатль,Avar,,Avar,,TRUE,,,Цанахль,Цанатль,,,83,389,42.72244,46.62252,Daghestan,Гумбетовский,932.018615722656,,Гумбетовский,42.72244,46.62252
107,Irganay,Ирганай,Avar,,Avar,,TRUE,Ирхана (Рихуни),"Ирганай (Ирханы, Иргана, Рихуни)",Ирганай,Ирганай,596,613,699,2290,42.649543,46.912048,Daghestan,Унцукульский,577.021057128906,,Унцукульский,42.649543,46.912048
109,Kakhikal,Кахикал,Avar,,Avar,,TRUE,Кахи-Кала,Кахи-Калъ (Кахи-Калахъ),Кахиналь,Кахикал,105,124,116,339,42.499065,46.874809,Daghestan,Хунзахский,1035.96752929688,,Хунзахский,42.499065,46.874809
111,Tagada,Тагада,Avar,,Avar,,TRUE,Тахада,Тагада (Тахада),Тагада,Тагада,156,160,185,498,42.497573,46.868389,Daghestan,Хунзахский,1161.54858398438,,Хунзахский,42.497573,46.868389
113,Uzdalroso,Уздалросо,Avar,,Avar,,TRUE,Уидал-росо,Уздаль—Росо,Уздал-Россо,Уздалросо,161,184,232,872,42.48612,46.85577,Daghestan,Хунзахский,1176.55590820313,,Хунзахский,42.48612,46.85577
115,Kakh,Ках,Avar,,Avar,,TRUE,Ках,"Кахабъ-Росо (Кахаросъ, Ахкентъ)",Ках,Ках,212,221,211,276,42.557664,46.790848,Daghestan,Хунзахский,1523.94067382812,,Хунзахский,42.557664,46.790848
117,Kuanib,Куаниб,Avar,,Avar,,TRUE,Куани,"Куана (Коани, Канибъ)",Коани,Куаниб,287,292,317,454,42.509735,46.611385,Daghestan,Шамильский,1549.83215332031,,Шамильский,42.509735,46.611385
119,Kudutl',Кудутль,Avar,,Avar,,TRUE,Кодутль,"Кудутль (Кодутль, Кодухъ)",Кодотль,Кудутль,677,668,524,541,42.5783,47.0194,Daghestan,Гергебильский,939.047058105469,,Гергебильский,42.5783,47.0194
121,,Могох,Avar,,,,,Могок,"Магохъ (Магокъ, Чабти Магохъ)",Могох,Могох,602,622,530,274,,,Daghestan,Гергебильский,,Гергебильский район,Гергебильский,"42,561660° 46,916220°",
121,,Могох,Avar,,,,,Могок,"Магохъ (Магокъ, Чабти Магохъ)",Могох,Могох,602,622,530,274,,,Daghestan,Гергебильский,,Шамильский район,Гергебильский,"42,561660° 46,916220°",
123,Gotsob,Гоцоб,Avar,,Avar,,TRUE,Гецо (Хецо),Гоцо,Гоцо,Гоцоб,168,160,159,164,42.58963,46.86901,Daghestan,Гергебильский,1867.50061035156,,Гергебильский,42.58963,46.86901
125,,Кура-Курух,Avar,,,,,,,Кура-Курух,,,,27,,,,Daghestan,Гергебильский,,,Гергебильский,,
127,Moksokh,Моксох,Avar,,Avar,,TRUE,Моксок,Моксокъ (Моксохъ),Моксок,Моксох,309,309,241,220,42.6538,46.80572,Daghestan,Унцукульский,1734.06005859375,,Унцукульский,42.6538,46.80572
129,,Могох,Avar,,,,,Могох (Мохок),"Могохъ (Мохокъ, Заната Могохъ)",Мохог,Могох,226,243,272,363,,,Daghestan,Шамильский,,Гергебильский район,Шамильский,42.49944,46.57472
129,,Могох,Avar,,,,,Могох (Мохок),"Могохъ (Мохокъ, Заната Могохъ)",Мохог,Могох,226,243,272,363,,,Daghestan,Шамильский,,Шамильский район,Шамильский,42.49944,46.57472
131,Zanata,Заната,Avar,,Avar,,TRUE,Заната,Заната,Заната,Заната,200,202,159,198,42.485146,46.552771,Daghestan,Шамильский,1602.92211914063,,Шамильский,42.485146,46.552771
133,Mochokh,Мочох,Avar,,Avar,,TRUE,Мочох,Мочохъ,Мочох,Мочох,420,418,372,399,42.63159,46.61242,Daghestan,Хунзахский,1638.51086425781,,Хунзахский,42.63159,46.61242
135,Muschuli,Мушули,Avar,,Avar,,TRUE,Мусшул,Мусшуль (Мусшули),Мушули,Мушули,300,294,324,571,42.633706,46.498593,Daghestan,Хунзахский,1024.61657714844,в википедии и на картах Мушули,Хунзахский,42.633706,46.498593
137,Nitab,Нитаб,Avar,,Avar,,TRUE,Нита,Нита,Нита,Нитаб,161,164,147,235,42.51925,46.63256,Daghestan,Шамильский,1412.81176757813,,Шамильский,42.51925,46.63256
139,Datuna,Датуна,Avar,,Avar,,TRUE,"Датуната (Датун, Малиданаха)","Датунъ, Датуната, Малиданака",Датун,Датуна,67,80,74,179,42.47357,46.64364,Daghestan,Шамильский,856.761596679688,,Шамильский,42.47357,46.64364
141,,Накитль,Avar,,,,,Накитль,Накитль (Батинчи),Накитль,Накитль,118,130,149,162,,,Daghestan,Хунзахский,,,Хунзахский,42.507,46.656
143,Oboda,Обода,Avar,,Avar,,TRUE,Обода (Ебода),Обода,Обода,Обода,747,734,701,664,42.578542,46.668203,Daghestan,Хунзахский,1742.22082519531,,Хунзахский,42.578542,46.668203
145,Orota,Орота,Avar,,Avar,,TRUE,Орота,Орота,Орота,Орота,638,632,669,1679,42.65915,46.53772,Daghestan,Хунзахский,1150.51062011719,,Хунзахский,42.65915,46.53772
147,Ochlo,Очло,Avar,,Avar,,TRUE,"Очло (Очлоб, Ечле)",Очло (Очлобъ),Очло,Очло,226,221,205,572,42.642518,46.64532,Daghestan,Хунзахский,1809.26586914062,,Хунзахский,42.642518,46.64532
149,,Тадколо,Avar,,,,,Тад-коло,Тадъ-Коло (Татколо),Тат-Коло,,99,96,94,,,,Daghestan,Хунзахский,,,Хунзахский,,
151,Siukh,Сиух,Avar,,Karata,,FALSE,Сиук,Сиухъ,Сиух,Сиух,763,772,661,278,42.5999,46.54462,Daghestan,Хунзахский,1907.66162109375,,Хунзахский,42.5999,46.54462
153,Tanusi,Тануси,Avar,,Avar,,TRUE,Танус,Танус,Танус,Тануси,569,589,511,512,42.58233,46.69233,Daghestan,Хунзахский,1938.77014160156,,Хунзахский,42.58233,46.69233
155,Ebuta,Эбута,Avar,,Avar,,TRUE,Эбота (Эбута),Эбота (Эбута),Эбута,Эбута,97,108,130,170,42.59275,46.66626,Daghestan,Хунзахский,1941.396484375,,Хунзахский,42.59275,46.66626
157,Tlaylukh,Тлайлух,Avar,,Avar,,TRUE,Тлайлух (Тлаелук),Тлайлухъ (Тлаелухъ),Тлайлух,Тлайлух,163,111,209,375,42.6208,46.52428,Daghestan,Хунзахский,1120.19641113281,,Хунзахский,42.6208,46.52428
159,,Карачитль,Avar,,,,,,,Карачитль,,,,5,,,,Daghestan,Хунзахский,,,Хунзахский,,
161,Tukita,Тукита,Avar,,Karata,,FALSE,Текита (Инкета),Текита (Инкита),Токита,Тукита,111,111,127,165,42.57056,46.37278,Daghestan,Хунзахский,1939.52868652344,Ахвахский район,Хунзахский,42.630886,46.521832
161,,Тукита,Avar,,,,,Текита (Инкета),Текита (Инкита),Токита,Тукита,111,111,127,165,,,Daghestan,Хунзахский,,Хунзахский район,Хунзахский,42.630886,46.521832
163,Tsel'mes,Цельмес,Avar,,Avar,,TRUE,Цельмес,Цельмесъ,Цельмес,Цельмес,229,260,251,378,42.623464,46.538549,Daghestan,Хунзахский,1164.96484375,,Хунзахский,42.623464,46.538549
165,Untsukul',Унцукуль,Avar,,Avar,,TRUE,Унцукуль (Онсокули),"Унцукуль (Онсокули, Унцуколо)",Унцукуль,Унцукуль,2228,2089,2308,6276,42.7131,46.7875,Daghestan,Унцукульский,867.300598144531,,Унцукульский,42.7131,46.7875
167,Orkachi,Оркачи,Avar,,Avar,,TRUE,"Оркачи (Еркачи, Урками)",Уркачи,Уркачи,Оркачи,298,298,319,401,42.6058,46.81797,Daghestan,Хунзахский,1837.66027832031,,Хунзахский,42.6058,46.81797
169,Verkhniy Aradirikh,Верхний Арадирих,Avar,,Avar,,TRUE,Харадерик верхний (Таса-Харадерик),Верхний Харадырикъ (Таса Х.),В. Харадырых,Верхний Арадирих,276,260,267,495,42.67099,46.60372,Daghestan,Гумбетовский,1882.21154785156,,Гумбетовский,42.67099,46.60372
171,Nizhniy Aradirikh,Нижний Арадирих,Avar,,Avar,,TRUE,Харадерик нижний (Гортль-Харадерик),Нижний Харадырикъ (Гортло Х.),Н. Харадырых,Нижний Арадирих,156,148,161,309,42.68979,46.568219,Daghestan,Гумбетовский,1751.45910644531,,Гумбетовский,42.68979,46.568219
173,Sredniy Aradirikh,Средний Арадирих,Avar,,Avar,,TRUE,Харадерик  средний (Батла-Харадерик),Средний Харадырикъ (Холо Х.),Ср. Харадыр.,Средний Арадирих,234,235,287,579,42.68121,46.58022,Daghestan,Гумбетовский,1828.70825195313,,Гумбетовский,42.68121,46.58022
175,Kharakhi,Харахи,Avar,,Avar,,TRUE,Хараки,Харахи,Харахи,Харахи,657,699,735,1199,42.6433,46.5211,Daghestan,Хунзахский,1162.10363769531,,Хунзахский,42.6433,46.5211
177,Kharachi,Харачи,Avar,,Avar,,TRUE,Харачи,Харачи (Харачибъ),Харачи,Харачи,358,382,380,450,42.67744,46.82263,Daghestan,Унцукульский,1241.09851074219,,Унцукульский,42.67744,46.82263
179,Kharikolo,Хариколо,Avar,,Avar,,TRUE,Хари-коло,Хари-Коло (Харикули),Харикало,Хариколо,306,330,410,342,42.5451,46.80847,Daghestan,Хунзахский,1538.46350097656,,Хунзахский,42.5451,46.80847
181,,Куди Магом.,Avar,,,,,,,Куди Магом.,,,,8,,,,Daghestan,Хунзахский,,,Хунзахский,,
183,,Хундари Мархо,Avar,,,,,,,Хундари Мархо,,,,16,,,,Daghestan,Хунзахский,,,Хунзахский,,
185,,Чалучикан,Avar,,,,,,,Чалучикан,,,,12,,,,Daghestan,Хунзахский,,,Хунзахский,,
187,Khimakoro,Химакоро,Avar,,Avar,,TRUE,Хима-коро,Хима—Коро,Химакаро,Химакоро,183,196,161,66,42.590092,46.617523,Daghestan,Хунзахский,1803.10949707031,,Хунзахский,42.590092,46.617523
189,,Хиндах,Avar,,,,,Хичдак (Хичдах),Хиндакъ (Хиндакъ),Хиндах,Хиндах,264,1364,266,562,,,Daghestan,Хунзахский,,Гунибский район,Хунзахский,,
189,,Хиндах,Avar,,,,,Хичдак (Хичдах),Хиндакъ (Хиндакъ),Хиндах,Хиндах,264,1364,266,562,,,Daghestan,Хунзахский,,Тляратинский район,Хунзахский,,
189,,Хиндах,Avar,,,,,Хичдак (Хичдах),Хиндакъ (Хиндакъ),Хиндах,Хиндах,264,1364,266,562,,,Daghestan,Хунзахский,,Хунзахский район,Хунзахский,,
189,,Хиндах,Avar,,,,,Хичдак (Хичдах),Хиндакъ (Хиндакъ),Хиндах,Хиндах,264,1364,266,562,,,Daghestan,Хунзахский,,Шамильский район,Хунзахский,,
191,Kolo,Коло,Avar,,Avar,,TRUE,Гаха-коло,Гахо-Коло (Каха-Коло),Гоха-Коло,Коло,217,191,214,538,42.65769,46.56607,Daghestan,Хунзахский,1000.58825683594,?,Хунзахский,42.65769,46.56607
191,,Коло,Avar,,,,,Гаха-коло,Гахо-Коло (Каха-Коло),Гоха-Коло,Коло,217,191,214,538,,,Daghestan,Хунзахский,,?,Хунзахский,42.65769,46.56607
193,Khunzakh,Хунзах,Avar,,Avar,,TRUE,Хунзах,Хунзахъ,Хунзах,Хунзах,1741,1768,1658,4246,42.5394,46.705,Daghestan,Хунзахский,1641.54418945313,,Хунзахский,42.5394,46.705
195,,Амитль,Avar,,,,,,,Амитль,,,,71,,,,Daghestan,Хунзахский,,,Хунзахский,,
197,,Бакда,Avar,,,,,,,Бакда,,,,37,,,,Daghestan,Хунзахский,,,Хунзахский,,
199,Zaib,Заиб,Avar,,Avar,,TRUE,,,Заи,Заиб,,,56,226,42.489364,46.707472,Daghestan,Хунзахский,799.366271972656,,Хунзахский,42.489364,46.707472
201,,Колони,Avar,,,,,,,Колони,,,,16,,,,Daghestan,Хунзахский,,,Хунзахский,,
203,Khini,Хини,Avar,,Avar,,TRUE,,,Хини,Хини,,,245,250,42.52767,46.70496,Daghestan,Хунзахский,1308.34851074219,,Хунзахский,42.52767,46.70496
205,Tsatanikh,Цатаних,Avar,,Avar,,TRUE,Цатаних,Цатанихъ,Цатаних,Цатаних,635,603,431,863,42.667793,46.723937,Daghestan,Унцукульский,1779.18103027344,,Унцукульский,42.667793,46.723937
207,,Колоб,Avar,,,,,Иштибури-коло,Иштибури—Коло (Коло),Холо,Колоб,281,286,249,242,,,Daghestan,Унцукульский,,Тляратинский район,Унцукульский,,
207,,Колоб,Avar,,,,,Иштибури-коло,Иштибури—Коло (Коло),Холо,Колоб,281,286,249,242,,,Daghestan,Унцукульский,,Унцукульский район,Унцукульский,,
209,Inkvalita,Инквалита,Avar,,Avar,,TRUE,Инкоалита,Инкоалита (Инколита),Инколита,Инквалита,173,176,135,46,42.69936,46.68833,Daghestan,Унцукульский,1519.19567871094,,Унцукульский,42.69936,46.68833
211,Ishtiburi,Иштибури,Avar,,Avar,,TRUE,Иштибури,Иштибури,Иштибури,Иштибури,194,192,196,292,42.679149,46.702701,Daghestan,Унцукульский,1649.22534179688,,Унцукульский,42.679149,46.702701
213,Shotota,Шотода,Avar,,Avar,,TRUE,Шотота,Шотота,Шотота,Шотода,229,231,250,360,42.58165,46.57729,Daghestan,Хунзахский,1925.59729003906,,Хунзахский,42.58165,46.57729
215,Agvali,Агвали,Chamalal,,Chamalal,,TRUE,Ашали,Агвали (Агуали),Агвали,Агвали,181,183,213,2453,42.541192,46.121798,Daghestan,Цумадинский,962.579956054688,?,Цумадинский,42.5261,46.125
215,,Агвали,Chamalal,,,,,Ашали,Агвали (Агуали),Агвали,Агвали,181,183,213,2453,,,Daghestan,Цумадинский,,?,Цумадинский,42.5261,46.125
217,,Акнада,Tindi,,,,,Акнада,"Акнода (Аканада, Ашанажи)",Акнода,Акнада,502,503,519,120,,,Daghestan,Цумадинский,,Кизилюртовский район,Цумадинский,"42,401431° 46,171094°",
217,Aknada,Акнада,Tindi,,Tindi,,TRUE,Акнада,"Акнода (Аканада, Ашанажи)",Акнода,Акнада,502,503,519,120,42.4024828,46.1693204,Daghestan,Цумадинский,1756.12231445313,Цумадинский район,Цумадинский,"42,401431° 46,171094°",
219,Alak,Алак,Avar,,Avar,,TRUE,Алак,Алакъ (Алади),Алак,Алак,665,654,779,2759,42.6092,46.1972,Daghestan,Ботлихский,1810.92053222656,,Ботлихский,,
221,Angida,Ангида,Tindi,,Tindi,,TRUE,Ангида,Ангида,Ангида,Ангида,471,426,517,7,42.43279,46.1924,Daghestan,Цумадинский,1881.74572753906,,Цумадинский,,
223,Asha,Аща,Tindi,,Tindi,,TRUE,Ашали,Ашша (Аша),Ашша,Аща,187,190,261,0,42.450373,46.3334458,Daghestan,Цумадинский,3161.02319335937,,Цумадинский,,
225,,Анды,Andi,верхне-андийски,,,,Анди,Анди (Куанналъ),Анды,,2787,1703,2261,,,,Daghestan,Ботлихский,,,Ботлихский,,
227,,Азалала,Andi,верхне-андийски,,,,,,Азалала,,,,6,,,,Daghestan,Ботлихский,,,Ботлихский,,
229,,Ачилу,Andi,верхне-андийски,,,,,,Ачилу,,,,16,,,,Daghestan,Ботлихский,,,Ботлихский,,
231,Ashali,Ашали,Andi,верхне-андийски,Andi,,TRUE,Ашали,Ашали (Ашуламъ),Ашали,Ашали,263,286,138,788,42.76963,46.30878,Daghestan,Ботлихский,1573.82092285156,,Ботлихский,,
233,,Белилетль,Andi,верхне-андийски,,,,,,Белилетль,,,,8,,,,Daghestan,Ботлихский,,,Ботлихский,,
235,,Гана,Andi,верхне-андийски,,,,,,Гана,,,,27,,,,Daghestan,Ботлихский,,,Ботлихский,,
237,,Лагу,Andi,верхне-андийски,,,,,,Лагу,,,,15,,,,Daghestan,Ботлихский,,,Ботлихский,,
239,,Рукотль,Andi,верхне-андийски,,,,,,Рукотль,,,,16,,,,Daghestan,Ботлихский,,,Ботлихский,,
241,,Хичиха,Andi,верхне-андийски,,,,,,Хичиха,,,,25,,,,Daghestan,Ботлихский,,,Ботлихский,,
243,,Хунтеро,Andi,верхне-андийски,,,,,,Хунтеро,,,,4,,,,Daghestan,Ботлихский,,,Ботлихский,,
245,Tsibilta,Цибильта,Andi,верхне-андийски,Andi,,TRUE,,,Цибильта,Цибилта,,,90,47,42.74322,46.24311,Daghestan,Ботлихский,1962.23852539062,,Ботлихский,42.74322,46.24311
247,,Цумаль,Andi,верхне-андийски,,,,,,Цумаль,,,,3,,,,Daghestan,Ботлихский,,,Ботлихский,,
249,Ansalta,Ансалта,Avar,,Avar,,TRUE,Аисалта,"Ансалты (Ансалта, Ансалъ)",Ансальта,Ансалта,1265,1381,1373,4598,42.6939,46.1147,Daghestan,Ботлихский,1103.71447753906,,Ботлихский,,
251,Rakhata,Рахата,Avar,,Avar,,TRUE,,,Рахта,Рахата,,,373,2911,42.6911,46.1414,Daghestan,Ботлихский,1017.46307373047,,Ботлихский,42.6911,46.1414
253,Anchik (Anchikh),Анчик,Karata,карат.,Karata,,TRUE,Анчик  (Анчиди),Анчикъ (Анчиди),Анчик,Анчик,571,664,813,817,42.608098,46.271717,Daghestan,Ахвахский,1196.12072753906,,Ахвахский,,
255,Tsumali,Цумали,Karata,карат.,Avar,,FALSE,,,Цума,Цумали,,,43,195,42.607619,46.260923,Daghestan,Ахвахский,1396.15783691406,,Ахвахский,42.607619,46.260923
257,Argvani,Аргвани,Avar,,Avar,,TRUE,Аргуани,Аргуани,Аргуани,Аргвани,914,958,974,797,42.8128,46.5792,Daghestan,Гумбетовский,1593.82104492188,,Гумбетовский,,
259,Archo,Арчо,Karata,карат.,Karata,,TRUE,Арчо (Ачуди),"Арчо (Арчу, Ачуди, Арчубъ)",Арчо,Арчо,326,299,406,346,42.597691,46.305756,Daghestan,Ахвахский,1524.14245605469,,Ахвахский,,
261,Assab,Ассаб,Avar,,Avar,,TRUE,Асса,Асса (Ассабъ),Ассаб,Ассаб,946,979,835,1640,42.471596,46.492475,Daghestan,Шамильский,1596.57141113281,,Шамильский,,
263,Botlikh,Ботлих,Botlikh,,Botlikh,,TRUE,Ботлих,Болтих (Батлькалъ),Ботлих,Ботлих,1105,1041,1070,10787,42.667813,46.221451,Daghestan,Ботлихский,963.75537109375,,Ботлихский,42.667813,46.221451
265,,Аманы,Botlikh,,,,,,,Аманы,,,,41,,,,Daghestan,Ботлихский,,,Ботлихский,,
267,Gagatli,Гагатли,Andi,верхне-андийски,Andi,,TRUE,Гагатль,Гагатль (Гагудиралъ),Гагатль,Гагатли,1360,1500,1981,3543,42.800361,46.292645,Daghestan,Ботлихский,1713.54443359375,,Ботлихский,42.800361,46.292645
269,,Бичила,Andi,верхне-андийски,,,,,,Бичила,,,,20,,,,Daghestan,Ботлихский,,,Ботлихский,,
271,,Гунха,Andi,верхне-андийски,,,,Гунхо,"Гунхо (Гунха, Гунналъ)",Гунхо,Гунха,198,214,242,129,,,Daghestan,Ботлихский,,,Ботлихский,42.78968,46.28275
273,Zilo,Зило,Andi,верхне-андийски,Andi,,TRUE,Зило,"Зило (Зилю, Зилюръ, Зилудиралъ)",Зило,Зило,569,469,510,1220,42.731394,46.319223,Daghestan,Ботлихский,1202.365234375,,Ботлихский,42.731394,46.319223
275,Gadari,Гадари,Avar,,Avar,,TRUE,Гадари (Кадари),Гадари,Гадари,Гадари,359,355,306,254,42.807303,46.621237,Daghestan,Гумбетовский,1272.22509765625,,Гумбетовский,42.807303,46.621237
277,Gadiri,Гадири,Chamalal,,Chamalal,,TRUE,Гадири,"Гадыри (Хадыри, Гади)",Гадири,Гадири,481,547,522,418,42.566265,46.065746,Daghestan,Цумадинский,1965.58154296875,,Цумадинский,42.566265,46.065746
279,Gachitli,Гачитли,Chamalal,,Chamalal,,TRUE,Гачитль,Гачитль,Гачитли,Гачитли,121,117,75,128,42.551361,46.088803,Daghestan,Цумадинский,1763.30981445313,,Цумадинский,42.551361,46.088803
281,,Идходатль,Chamalal,,,,,,,Идходатль,,,,13,,,,Daghestan,Цумадинский,,,Цумадинский,,
283,,Цатини,Chamalal,,,,,,,Цатини,,,,14,,,,Daghestan,Цумадинский,,,Цумадинский,,
285,,Верхнее Гаквари,Chamalal,,,,,,,В. Гаквари,Верхнее Гаквари,,,191,383,,,Daghestan,Цумадинский,,,Цумадинский,42.547874,46.032686
287,Agvali,Агвали,Chamalal,,Chamalal,,TRUE,,,Агвали,,,,72,,42.541192,46.121798,Daghestan,Цумадинский,962.579956054688,?,Цумадинский,,
287,,Агвали,Chamalal,,,,,,,Агвали,,,,72,,,,Daghestan,Цумадинский,,?,Цумадинский,,
289,,Асали,Chamalal,,,,,,,Асали,,,,24,,,,Daghestan,Цумадинский,,,Цумадинский,,
291,,Бекахатль,Chamalal,,,,,,,Бекахатль,,,,26,,,,Daghestan,Цумадинский,,,Цумадинский,,
293,,Бицида,Chamalal,,,,,,,Бицида,,,,58,,,,Daghestan,Цумадинский,,,Цумадинский,,
295,Gigikh,Гигих,Chamalal,,Chamalal,,TRUE,,,Жилитль,Гигих,,,5,103,42.532529,46.101767,Daghestan,Цумадинский,1316.25646972656,,Цумадинский,,
297,,Исибки,Chamalal,,,,,,,Исибки,,,,10,,,,Daghestan,Цумадинский,,,Цумадинский,,
299,,Эгдада,Chamalal,,,,,,,Ихдата,Эгдада,,,95,202,,,Daghestan,Цумадинский,,,Цумадинский,,
301,,Кабилач,Chamalal,,,,,,,Кабилач,,,,8,,,,Daghestan,Цумадинский,,,Цумадинский,,
303,,Кирижбай,Chamalal,,,,,,,Кирижбай,,,,35,,,,Daghestan,Цумадинский,,,Цумадинский,,
305,,Коляда,Chamalal,,,,,,,Коляда,,,,12,,,,Daghestan,Цумадинский,,,Цумадинский,,
307,,Мачбал,Chamalal,,,,,,,Мачбал,,,,42,,,,Daghestan,Цумадинский,,,Цумадинский,,
309,,Мухгада,Chamalal,,,,,,,Мухгада,,,,12,,,,Daghestan,Цумадинский,,,Цумадинский,,
311,Nizhnie Gakvari,Нижние Гаквари,Chamalal,,Chamalal,,TRUE,"Гакуари (Акори, Акуа-Гантла)","Гаквари (Гакуари, Акори, Акуа-Гантла)",Нижн. Гаквари,Нижнее Гаквари,1179,1303,396,497,42.53602,46.05171,Daghestan,Цумадинский,1625.3076171875,"в википедии Нижнее Гаквари, на картах Нижние Гаквари",Цумадинский,42.53602,46.05171
313,Richaganikh,Ричаганих,Chamalal,,Chamalal,,TRUE,Рычаганих (Гинха),"Рычаганыкъ (Рычаганыкъ, Гинха)",Ричаганик,Ричаганих,277,324,172,175,42.49724,46.05853,Daghestan,Цумадинский,1780.73510742188,,Цумадинский,42.49724,46.05853
315,,Сусла,Chamalal,,,,,,,Сусла,,,,6,,,,Daghestan,Цумадинский,,,Цумадинский,,
317,,Хаутли,Chamalal,,,,,,,Хаутли,,,,20,,,,Daghestan,Цумадинский,,,Цумадинский,,
319,,Хинч,Chamalal,,,,,,,Хинч,,,,131,,,,Daghestan,Цумадинский,,,Цумадинский,,
321,,Хувалач,Chamalal,,,,,,,Хувалач,,,,22,,,,Daghestan,Цумадинский,,,Цумадинский,,
323,Tsidatl',Цидатль,Chamalal,,Chamalal,,TRUE,,,Цидатли,Цидатль,,,93,143,42.51855,46.05795,Daghestan,Цумадинский,1630.2783203125,,Цумадинский,42.51855,46.05795
325,Tsuydi,Цуйди/Цунди,Chamalal,,Chamalal,,TRUE,,,Цунди,Цунди,,,72,30,42.52334,46.07182,Daghestan,Цумадинский,1610.32751464844,,Цумадинский,"42,523395° 46,071812°",
327,,Чунаси,Chamalal,,,,,,,Чунаси,,,,12,,,,Daghestan,Цумадинский,,,Цумадинский,,
329,,Исси,Chamalal,,,,,,,Эсси,,,,27,,,,Daghestan,Цумадинский,,,Цумадинский,,
331,Gigatl',Гигатль,Chamalal,,Chamalal,,TRUE,Гигатли (Игатли),Гигатль (Гигатли),Гигатли,Гигатль,824,496,767,1349,42.58136,46.0964,Daghestan,Цумадинский,1782.37231445313,,Цумадинский,42.58136,46.0964
333,Batlakhatli,Батлахатли,Chamalal,,Chamalal,,TRUE,,,Битлохотль,Батлахатли,,,72,3,42.580364,46.058877,Daghestan,Цумадинский,1727.35815429688,,Цумадинский,,
335,,Калих-3,Chamalal,,,,,,,Колих,,,,62,,,,Daghestan,Цумадинский,,,Цумадинский,,
337,,Инцатли,Chamalal,,,,,,,Инцатли,,,,14,,,,Daghestan,Цумадинский,,,Цумадинский,,
339,,Цачах,Chamalal,,,,,,,Цачах,,,,116,,,,Daghestan,Цумадинский,,,Цумадинский,,
341,Gimerso,Гимерсо,Bagvalal,,Bagvalal,,TRUE,Гимерси (Гиметлян),"Гимерси (Гимерсу, Химерсу, Гимцалъ)",Гимерсо,Гимерсо,304,253,285,211,42.561489,46.227545,Daghestan,Цумадинский,1678.71472167969,,Цумадинский,42.561489,46.227545
343,Godoberi,Годобери,Godoberi,,Godoberi,,TRUE,Годобери (Геди),Годобери,Годебери Верх.,Годобери,887,1147,743,3050,42.6258,46.1189,Daghestan,Ботлихский,1438.76196289063,Ботлихский район,Ботлихский,42.6258,46.1189
343,,Годобери,Godoberi,,,,,Годобери (Геди),Годобери,Годебери Верх.,Годобери,887,1147,743,3050,,,Daghestan,Ботлихский,,Гунибский район,Ботлихский,42.6258,46.1189
345,,Белуха,Godoberi,,,,,,,Белуха,,,,4,,,,Daghestan,Ботлихский,,,Ботлихский,,
347,,Букуду,Godoberi,,,,,,,Букуду,,,,6,,,,Daghestan,Ботлихский,,,Ботлихский,,
349,,Ниж. Годобери (часть),Godoberi,,,,,,,Годебери Ниж.,,,,172,,,,Daghestan,Ботлихский,,,Ботлихский,,
351,,Лудига (часть Годобери),Godoberi,,,,,,,Лудиха,,,,52,,,,Daghestan,Ботлихский,,,Ботлихский,42.628054,46.10404
353,,Рахатлы,Godoberi,,,,,,,Рахатлы,,,,67,,,,Daghestan,Ботлихский,,,Ботлихский,,
355,,Цаху,Godoberi,,,,,,,Цаху,,,,2,,,,Daghestan,Ботлихский,,,Ботлихский,,
357,,Шахитль,Godoberi,,,,,,,Шахитль,,,,4,,,,Daghestan,Ботлихский,,,Ботлихский,,
359,Danukh,Данух,Avar,,Chechen,,FALSE,Данух,Данухъ,Данух,Данух,274,220,390,810,42.84282,46.6275,Daghestan,Гумбетовский,1691.798828125,,Гумбетовский,42.84282,46.6275
361,Zibirkhali,Зибирхали,Godoberi,,Godoberi,,TRUE,Зуберхули,Зибирхали (Зибихули),Зиберкали,Зибирхали,285,279,147,64,42.66833,46.07194,Daghestan,Ботлихский,1791.06030273438,,Ботлихский,42.66833,46.07194
363,,разв. Белеби,Botlikh,,,,,,,Биляды,,,,47,,,,Daghestan,Ботлихский,,,Ботлихский,,
365,,Гахибет,Botlikh,,,,,,,Гахибет,,,,4,,,,Daghestan,Ботлихский,,,Ботлихский,,
367,,Зибиру,Botlikh,,,,,,,Зибиру,,,,30,,,,Daghestan,Ботлихский,,,Ботлихский,,
369,,Рухуг,Botlikh,,,,,,,Рухуг,,,,9,,,,Daghestan,Ботлихский,,,Ботлихский,,
371,,Хадникала,Botlikh,,,,,,,Хадникала,,,,5,,,,Daghestan,Ботлихский,,,Ботлихский,,
373,,Хинхитель,Botlikh,,,,,,,Хинхитель,,,,15,,,,Daghestan,Ботлихский,,,Ботлихский,,
375,,№ 1,Botlikh,,,,,,,№ 1,,,,6,,,,Daghestan,Ботлихский,,,Ботлихский,,
377,,№ 2,Botlikh,,,,,,,№ 2,,,,8,,,,Daghestan,Ботлихский,,,Ботлихский,,
379,Izano,Изано,Akhvakh,сев.-ахвах.,Akhvakh,,TRUE,Изани (Изаниб),Изани (Изанибъ),Изани,Изано,412,433,318,1211,42.52735,46.40389,Daghestan,Ахвахский,1823.7587890625,,Ахвахский,42.52735,46.40389
381,,Хунди,Akhvakh,сев.-ахвах.,,,,,,Хунди,,,,46,,,,Daghestan,Ахвахский,,,Ахвахский,,
383,Ingerdakh,Ингердах,Avar,,Avar,,TRUE,Ингердах,Ингердахъ (Ингурдахъ),Ингердах,Ингердах,456,490,531,1065,42.58926,46.398373,Daghestan,Ахвахский,1881.91979980469,,Ахвахский,42.58926,46.398373
385,Ingishi,Ингиши,Avar,,Avar,,TRUE,Ингиш,Ингишь (Ингишу),Ингиши,Ингиши,414,454,455,839,42.77477,46.54264,Daghestan,Гумбетовский,1533.03540039063,,Гумбетовский,42.77477,46.54264
387,Verkhnee Inkhelo,Верхнее Инхело,Karata,карат.,Karata,,TRUE,"Инхели-верхнее (Каа-инхили, Тад-Энхели)","Верхнее Энхели (Каа-Энхели, Тад-Энхели)",Инхело Верхн.,Верхнее Инхело,404,300,41,400,42.62035,46.329732,Daghestan,Ахвахский,1356.06799316406,,Ахвахский,42.62035,46.329732
389,,Зиндулла,Karata,карат.,,,,,,Зиндулла,,,,14,,,,Daghestan,Ахвахский,,,Ахвахский,,
391,Mashtada,Маштада,Karata,карат.,Karata,,TRUE,,,Маштада,Маштада,,,152,267,42.61362,46.314659,Daghestan,Ахвахский,1225.33544921875,,Ахвахский,42.61362,46.314659
393,,Чабакуры,Karata,карат.,,,,,,Чабакуры,,,,259,,,,Daghestan,Ахвахский,,,Ахвахский,,
395,Nizhnee Inkhelo,Нижнее Инхело,Karata,,Karata,,TRUE,"Инхели (Энхели) Нижнее (Кетле-инхили, Гортле-Инхели)","Нижнее Энхели (Кертле-Энхели, Гортль Энхели)",Инхело Нижн.,Нижнее Инхело,434,436,492,2111,42.645134,46.259367,Daghestan,Ботлихский,748.603271484375,,Ботлихский,42.645134,46.259367
397,Verkhnee Inkho,Верхнее Инхо,Avar,,Avar,,TRUE,Инхо верхнее (Тад-инху),"Верхнее Инхо (Тад-Инхо, Инху)",Инхо Верхн.,Верхнее Инхо,399,423,380,1030,42.70659,46.50415,Daghestan,Гумбетовский,633.350402832031,,Гумбетовский,,
399,Chitl',Читль,Avar,,Avar,,TRUE,Читль,Читль,Читль,Читль,246,219,230,440,42.722594,46.504009,Daghestan,Гумбетовский,690.845336914063,,Гумбетовский,42.722594,46.504009
401,Nizhnee Inkho,Нижнее Инхо,Avar,,Avar,,TRUE,Инхо нижнее (Гортль-инху),"Нижнее-Инхо (Гортль-Инхо, Инху)",Инхо Нижн.,Нижнее Инхо,558,557,477,1343,42.704518,46.507752,Daghestan,Гумбетовский,558.6376953125,,Гумбетовский,42.704518,46.507752
403,Ichichali,Ичичали,Avar,,Avar,,TRUE,Ичичали,Ичичали (Ичить),Ичичали,Ичичали,489,484,482,156,42.732617,46.405263,Daghestan,Гумбетовский,1663.771484375,,Гумбетовский,42.732617,46.405263
405,Karata,Карата,Karata,карат.,Karata,,TRUE,Карата,Карати (Кирай),Карата,Карата,960,948,1252,4154,42.5942,46.3419,Daghestan,Ахвахский,1463.62890625,,Ахвахский,42.5942,46.3419
407,Rachabulda,Рачабулда,Karata,карат.,Karata,,TRUE,Рачабулди,"Раяабалда (Рачабули, Рачаводъ)",Рачабульда,Рачабулда,100,90,145,168,42.617256,46.300014,Daghestan,Ахвахский,1307.50305175781,,Ахвахский,42.617256,46.300014
409,Kizhani,Кижани,Avar,,Avar,,TRUE,Кижани,Кижани (Кижано),Кижани,Кижани,309,314,309,345,42.74031,46.364775,Daghestan,Ботлихский,1515.361328125,,Ботлихский,42.74031,46.364775
411,Kilyatl',Килятль,Avar,,Avar,,TRUE,Килитль,Килятль,Килатль,Килятль,581,519,637,1034,42.704637,46.466046,Daghestan,Гумбетовский,948.678039550781,,Гумбетовский,42.704637,46.466046
413,Kvanada,Кванада,Bagvalal,,Bagvalal,,TRUE,"Конода (Куанада, Куантлян)",Конода (Куанада),Конода,Кванада,846,830,996,1389,42.561478,46.17397,Daghestan,Цумадинский,1635.52282714844,,Цумадинский,42.561478,46.17397
415,Kvankhidatli,Кванхидатли,Andi,нижне-андийский,Andi,,TRUE,Конхидатль (Куанхидатль),Конхидатль (Куанхъ),Конхидатль,Кванхидатли,546,419,419,921,42.65789,46.271742,Daghestan,Ботлихский,714.97412109375,,Ботлихский,42.65789,46.271742
417,Kudiyabroso,Кудиябросо,Akhvakh,сев.-ахвах.,Akhvakh,,TRUE,"Кудиаб-росо (Ахвах, Инка-Гаин)",Кудиаб-Росо (Ахвахъ),Кудияб-Россо,Кудиябросо,708,700,367,2233,42.541069,46.377932,Daghestan,Ахвахский,1566.51831054688,,Ахвахский,42.541069,46.377932
419,,Гоштада,Akhvakh,сев.-ахвах.,,,,,,Гоштада,,,,90,,,,Daghestan,Ахвахский,,,Ахвахский,,
421,,Дамиг,Akhvakh,сев.-ахвах.,,,,,,Дамиг,,,,76,,,,Daghestan,Ахвахский,,,Ахвахский,,
423,,Саминг,Akhvakh,сев.-ахвах.,,,,,,Саминг,,,,92,,,,Daghestan,Ахвахский,,,Ахвахский,,
425,,разв. Тунситль,Akhvakh,сев.-ахвах.,,,,,,Тукситль,,,,149,,,,Daghestan,Ахвахский,,,Ахвахский,,
427,,Хвадо-Кало,Akhvakh,сев.-ахвах.,,,,,,Хвадо-Кало,,,,55,,,,Daghestan,Ахвахский,,,Ахвахский,,
429,,Шама,Akhvakh,сев.-ахвах.,,,,,,Шама,,,,44,,,,Daghestan,Ахвахский,,,Ахвахский,,
431,,Шушу-Кари,Akhvakh,сев.-ахвах.,,,,,,Шушу-Кари,,,,32,,,,Daghestan,Ахвахский,,,Ахвахский,,
433,Mesterukh,Местерух,Avar,,Avar,,TRUE,Местерух,Местерухъ,Местерух,Местерух,492,504,585,1009,42.5747,46.3964,Daghestan,Ахвахский,1550.97204589844,,Ахвахский,42.5747,46.3964
435,Mekhel'ta,Мехельта,Avar,,Avar,,TRUE,Мехельта,"Мехельта (Мехель, Метлельта)",Мехельта,Мехельта,1873,10171,1917,3309,42.798277,46.497361,Daghestan,Гумбетовский,1487.85815429688,,Гумбетовский,42.798277,46.497361
437,Miarso,Миарсо,Botlikh,,Botlikh,,TRUE,"Миарсу (Миарса, Маерса)","Миарсу (Миарса, Миарс, Миесъ)",Миарсо,Миарсо,278,282,276,1714,42.654059,46.175643,Daghestan,Ботлихский,825.147644042969,,Ботлихский,42.654059,46.175643
439,Muni,Муни,Andi,нижне-андийский,Andi,,TRUE,Муни,Муни,Муни,Муни,911,748,583,3220,42.680242,46.308874,Daghestan,Ботлихский,714.581481933594,,Ботлихский,42.680242,46.308874
441,Ortakolo,Ортаколо,Avar,,Avar,,TRUE,Орто-коло (Ерта-коло),"Орто-Коло (Ерта-Коло, Ортакъ)",Орто-Кало,Ортаколо,162,137,80,598,42.67057,46.38882,Daghestan,Ботлихский,651.724365234375,,Ботлихский,42.67057,46.38882
443,Rushukha,Рушуха,Andi,нижне-андийский,Andi,,TRUE,,,Рушахо,Рушуха,,,38,58,42.71509,46.28112,Daghestan,Ботлихский,1677.90393066406,,Ботлихский,42.71509,46.28112
445,Ratsitl',Рацитль,Karata,карат.,Karata,,TRUE,Рацитль (Рациди),"Рацитль (Рацитло, Рациди)",Рацитль,Рацитль,343,360,362,112,42.63788,46.33455,Daghestan,Ахвахский,1893.68005371094,,Ахвахский,42.63788,46.33455
447,Rikvani,Риквани,Andi,верхне-андийски,Andi,,TRUE,Рикуани,"Рикуаны (Рикуны, Рикунадирлъ)",Рикони,Риквани,687,770,836,769,42.782304,46.319372,Daghestan,Ботлихский,1874.55419921875,,Ботлихский,42.782304,46.319372
449,Staryy Sivukh,Старый Сивух,Karata,карат.,Avar,,FALSE,Сиух,"Сиухъ (Сиукъ, Сиохъ)",Сиух,Старый Сивух,802,882,772,0,42.80278,46.43694,Daghestan,Гумбетовский,1874.5869140625,"так же есть строка Old Siukh, в которой все данные совпадают со Staryy Sivukh",Гумбетовский,42.80278,46.43694
451,Tad-Magitl',Тад-Магитль,Akhvakh,сев.-ахвах.,Akhvakh,,TRUE,Тад-Магитль (Куанкеро),Тадъ-Магитль (Ка-Мегитль),Тад-Магитль,Тад-Магитль,735,331,295,1203,42.550266,46.348953,Daghestan,Ахвахский,1443.89916992188,,Ахвахский,42.550266,46.348953
453,Kvankero,Кванкеро,Akhvakh,сев.-ахвах.,Akhvakh,,TRUE,,Конкеро (Куанкеро),Канкеро,Кванкеро,,496,205,369,42.55244,46.3404,Daghestan,Ахвахский,1359.33947753906,,Ахвахский,42.55244,46.3404
455,,Куитли,Akhvakh,сев.-ахвах.,,,,,,Куитли,,,,201,,,,Daghestan,Ахвахский,,,Ахвахский,,
457,,Мазаетлох,Akhvakh,сев.-ахвах.,,,,,,Мазаетлох,,,,51,,,,Daghestan,Ахвахский,,,Ахвахский,,
459,,Чакидири,Akhvakh,сев.-ахвах.,,,,,,Чакидири,,,,36,,,,Daghestan,Ахвахский,,,Ахвахский,,
461,,Чанди,Akhvakh,сев.-ахвах.,,,,,,Чанди,,,,112,,,,Daghestan,Ахвахский,,,Ахвахский,,
463,,Чухотль,Akhvakh,сев.-ахвах.,,,,,,Чухотль,,,,47,,,,Daghestan,Ахвахский,,,Ахвахский,,
465,Tando,Тандо,Avar,,Avar,,TRUE,Тандо,Тандо,Тандо,Тандо,571,564,653,641,42.707696,46.175693,Daghestan,Ботлихский,1452.20874023438,,Ботлихский,42.707696,46.175693
467,Tasuta,Тасута,Avar,,Avar,,TRUE,Тасута,Тасута (Тасталъ),Тасута,Тасута,240,275,347,369,42.71731,46.22568,Daghestan,Ботлихский,1614.81811523438,,Ботлихский,42.71731,46.22568
469,,Анхо,Avar,,,,,,,Анхо,,,,30,,,,Daghestan,Ботлихский,,?,Ботлихский,,
471,Tindi,Тинди,Tindi,,Tindi,,TRUE,Тинди (Иди),"Тинди (Тинды, Иди, Тинди-Богос)",Тинды,Тинди,1678,2050,386,2309,42.454716,46.13469,Daghestan,Цумадинский,1489.01391601563,,Цумадинский,42.454716,46.13469
473,,Анисучи,Tindi,,,,,,,Анисучи,,,,8,,,,Daghestan,Цумадинский,,,Цумадинский,,
475,,Анхи,Tindi,,,,,,,Анхи,,,,29,,,,Daghestan,Цумадинский,,,Цумадинский,,
477,,коч. Анцуда,Tindi,,,,,,,Анцуда,,,,19,,,,Daghestan,Цумадинский,,,Цумадинский,,
479,,Ачилобачи,Tindi,,,,,,,Ачилобачи,,,,37,,,,Daghestan,Цумадинский,,,Цумадинский,,
481,,? Бехвалутчи/Бехахутли,Tindi,,,,,,,Бехоркучи,Бехвалутчи,,,45,26,,,Daghestan,Цумадинский,,,Цумадинский,,
483,,Бичичи,Tindi,,,,,,,Бичичи,,,,98,,,,Daghestan,Цумадинский,,,Цумадинский,,
485,,Гагичи,Tindi,,,,,,,Гагичи,,,,10,,,,Daghestan,Цумадинский,,,Цумадинский,,
487,Gadaychi,Гадайчи,Tindi,,Tindi,,TRUE,,,Гадачи,Гадайчи,,,73,210,42.470059,46.070951,Daghestan,Цумадинский,1052.09020996094,,Цумадинский,42.470059,46.070951
489,,Ганга,Tindi,,,,,,,Ганга,,,,36,,,,Daghestan,Цумадинский,,,Цумадинский,,
491,,Гачитль,Tindi,,,,,,,Гачитль,,,,31,,,,Daghestan,Цумадинский,,,Цумадинский,,
493,Gvanachi,Гвиначи,Tindi,,Tindi,,TRUE,,,Гуначи,Гвиначи,,,141,45,42.4606005,46.1622609,Daghestan,Цумадинский,1965.69189453125,в Википедии и на картах Гвиначи,Цумадинский,,
495,,Италт,Tindi,,,,,,,Италт,,,,7,,,,Daghestan,Цумадинский,,,Цумадинский,,
497,,Ичидары,Tindi,,,,,,,Ичидары,,,,8,,,,Daghestan,Цумадинский,,,Цумадинский,,
499,,Качак,Tindi,,,,,,,Качак,,,,8,,,,Daghestan,Цумадинский,,,Цумадинский,,
501,,Койны,Tindi,,,,,,,Койны,,,,18,,,,Daghestan,Цумадинский,,,Цумадинский,,
503,,Косачи,Tindi,,,,,,,Косачи,,,,52,,,,Daghestan,Цумадинский,,,Цумадинский,,
505,,Мулла,Tindi,,,,,,,Мулла,,,,116,,,,Daghestan,Цумадинский,,,Цумадинский,,
507,,Мусаря,Tindi,,,,,,,Мусаря,,,,76,,,,Daghestan,Цумадинский,,,Цумадинский,,
509,,Обатль,Tindi,,,,,,,Обатль,,,,48,,,,Daghestan,Цумадинский,,,Цумадинский,,
511,,Гундучи,Tindi,,,,,,,Ондочи,Гундучи,,,102,0,,,Daghestan,Цумадинский,,,Цумадинский,,
513,Sanukh,Санух,Tindi,,Tindi,,TRUE,,,Санух,Санух,,,47,23,42.47054,46.13446,Daghestan,Цумадинский,1805.65515136719,,Цумадинский,42.47054,46.13446
515,Tenla,Тенла,Tindi,,Tindi,,TRUE,,,Тенала,Тенла,,,82,65,42.465771,46.128629,Daghestan,Цумадинский,1639.40698242188,,Цумадинский,42.465771,46.128629
517,Tissi-Akhitli,Тисси-Ахитли,Tindi,,Tindi,,TRUE,,,Тиссы Ахиты,Тисси-Ахитли,,,56,446,42.501506,46.103923,Daghestan,Цумадинский,1002.21270751953,,Цумадинский,42.501506,46.103923
519,Tissi,Тисси,Tindi,,Tindi,,TRUE,Тиси (Исимихижи),Тисси (Исимихижи),Тиссы,Тисси,204,225,331,576,42.48917,46.14395,Daghestan,Цумадинский,1674.43774414063,,Цумадинский,42.48917,46.14395
521,,Халаки,Tindi,,,,,,,Халаки,,,,27,,,,Daghestan,Цумадинский,,?,Цумадинский,,
523,Khalikh,Халих,Tindi,,Tindi,,TRUE,,,Халик,Халих,,,32,48,42.48467,46.09121,Daghestan,Цумадинский,1088.77648925781,,Цумадинский,42.48467,46.09121
525,,Хилачи,Tindi,,,,,,,Хилачи,,,,11,,,,Daghestan,Цумадинский,,,Цумадинский,,
527,,коч. Ханаси,Tindi,,,,,,,Хоноси,,,,32,,,,Daghestan,Цумадинский,,,Цумадинский,,
529,,Цератли,Tindi,,,,,,,Цератли,,,,50,,,,Daghestan,Цумадинский,,,Цумадинский,,
531,,Элла,Tindi,,,,,,,Элла,,,,41,,,,Daghestan,Цумадинский,,,Цумадинский,,
533,,Эмимигич,Tindi,,,,,,,Эмимигич,,,,53,,,,Daghestan,Цумадинский,,,Цумадинский,,
535,Tlibisho,Тлибишо,Bagvalal,,Bagvalal,,TRUE,"Тлибишу (Тлибуш, Хлиниши)","Тлибишу (Тлибишъ, Хлипиши)",Тлибиша,Тлибишо,287,296,250,939,42.56054,46.30101,Daghestan,Ахвахский,1667.69287109375,,Ахвахский,42.56054,46.30101
537,Tlisi,Тлиси,Bagvalal,,Bagvalal,,TRUE,Тлиси,Тлисси,Тлисса,Тлиси,99,97,149,210,42.56209,46.27428,Daghestan,Ахвахский,1976.58288574219,,Ахвахский,42.56209,46.27428
539,Tlondoda,Тлондода,Bagvalal,,Bagvalal,,TRUE,Тлендада (Гиндутлан),"Тлондода (Тлендода, Тладода, Тлельдода)",Тлондода,Тлондода,532,485,557,466,42.5247,46.1989,Daghestan,Цумадинский,1946.61865234375,,Цумадинский,42.5247,46.1989
541,Tlokh,Тлох,Avar,,Avar,,TRUE,Тлок,Тлохъ,Тлох,Тлох,1078,1383,945,2741,42.6492,46.4578,Daghestan,Ботлихский,1059.95825195313,,Ботлихский,42.6492,46.4578
543,Tlyanub,Тлянуб,Akhvakh,южно-ахвахский,Akhvakh,,TRUE,Тлянуб (Тлану),"Тлянуб (Тляноб, Тлану)",Тляноб,Тлянуб,464,594,494,229,42.43568,46.45745,Daghestan,Шамильский,1645.93200683594,,Шамильский,42.43568,46.45745
545,,Тлярата,Avar,,,,,Тларата,Тлярата (Тарата),Тларата,Тлярата,318,343,318,582,,,Daghestan,Гумбетовский,,Гумбетовский район,Гумбетовский,42.79528,46.5325
545,,Тлярата,Avar,,,,,Тларата,Тлярата (Тарата),Тларата,Тлярата,318,343,318,582,,,Daghestan,Гумбетовский,,Тляратинский район,Гумбетовский,42.79528,46.5325
547,Tukita,Тукита,Karata,тукит,Karata,,TRUE,Токита,Тукита (Токита),Тукита,Тукита,584,643,657,765,42.57056,46.37278,Daghestan,Ахвахский,1939.52868652344,Ахвахский район,Ахвахский,42.57056,46.37278
547,,Тукита,Karata,тукит,,,,Токита,Тукита (Токита),Тукита,Тукита,584,643,657,765,,,Daghestan,Ахвахский,,Хунзахский район,Ахвахский,42.57056,46.37278
549,Khvarshi,Хварши,Xvarshi,,Xvarshi,,TRUE,Хварши (Атлилько),Хварши (Атлилько),Хварши,Хварши,538,525,281,335,42.353471,46.107859,Daghestan,Цумадинский,2044.16040039062,,Цумадинский,42.353471,46.107859
551,Santlada,Сантлада,Xvarshi,,Xvarshi,Inkhoqwari,TRUE,Сантлада (Сантла),Сантляда (Сантла),Сантлода,Сантлада,180,209,148,109,42.38431,46.07505,Daghestan,Цумадинский,1742.72900390625,,Цумадинский,42.38431,46.07505
553,,Хонох,Xvarshi,,,,,,,Хнух,Хонох,,,65,581,,,Daghestan,Цумадинский,,,Цумадинский,,
555,Kheleturi,Хелетури,Avar,,Avar,,TRUE,Хелатлури (Хелитлуди),"Хелетрюри (Хелятледи, Тетлялъ)",Хетлюра,Хелетури,410,445,580,721,42.612495,46.225441,Daghestan,Ботлихский,1449.50549316406,,Ботлихский,42.612495,46.225441
557,Khushtada,Хуштада,Bagvalal,,Bagvalal,,TRUE,Хуштада (Хусад),Хуштада (Хучитади),Хуштада,Хуштада,739,664,812,842,42.517389,46.166126,Daghestan,Цумадинский,1665.20495605469,,Цумадинский,42.517389,46.166126
559,Tsekob,Цекоб,Akhvakh,южно-ахвахский,Akhvakh,,TRUE,Цеко,"Цекоб (Цеко, Циго)",Цекоб,Цекоб,481,536,493,143,42.422785,46.450219,Daghestan,Шамильский,1613.07263183594,,Шамильский,42.422785,46.450219
561,Tsilitl',Цилитль,Avar,,Avar,,TRUE,Цилитль,Цилитль,Цилитль,Цилитль,466,509,521,520,42.8125,46.4156,Daghestan,Гумбетовский,1904.12817382813,,Гумбетовский,42.8125,46.4156
563,Tsoloda,Цолода,Avar,,Avar,,TRUE,Цолода,Цолода,Цолода,Цолода,409,430,577,535,42.63827,46.36626,Daghestan,Ахвахский,2157.97021484375,,Ахвахский,42.63827,46.36626
565,Chanko,Чанко,Andi,верхне-андийски,Andi,,TRUE,Чанко,Чанк(х)о Чозкуръ (Чаккудиралъ),Чанко,Чанко,264,351,116,485,42.717936,46.246417,Daghestan,Ботлихский,1603.61743164063,,Ботлихский,42.717936,46.246417
567,,Анхо,Andi,верхне-андийски,,,,,,Анхо,Анхо,,,28,37,,,Daghestan,Ботлихский,,?,Ботлихский,,
569,,Камилю,Andi,верхне-андийски,,,,,,Камилю,,,,8,,,,Daghestan,Ботлихский,,,Ботлихский,,
571,,Митларота,Andi,верхне-андийски,,,,,,Митларота,,,,54,,,,Daghestan,Ботлихский,,,Ботлихский,,
573,Khando,Хандо,Andi,верхне-андийски,Andi,,TRUE,,,Хандо,Хандо,,,18,35,42.72694,46.23361,Daghestan,Ботлихский,1472.67944335938,,Ботлихский,42.72694,46.23361
575,,Шувуральда,Andi,верхне-андийски,,,,,,Шувуральда,,,,42,,,,Daghestan,Ботлихский,,,Ботлихский,,
577,Chirkata,Чирката,Avar,,Avar,,TRUE,Чиркат,Чиркатъ (Черкатъ),Чирката,Чирката,642,639,819,1923,42.783992,46.716609,Daghestan,Гумбетовский,422.574249267578,,Гумбетовский,42.783992,46.716609
579,Shabdukh,Шабдух,Avar,,Avar,,TRUE,Шавдух,"Шавдухъ (Шавдукъ, Шабдухъ, Шабдукъ)",Шавдук,Шабдух,228,218,224,145,42.75612,46.42139,Daghestan,Гумбетовский,1914.82763671875,,Гумбетовский,42.75612,46.42139
581,Tsundi,Цунди,Avar,,Avar,,TRUE,Цунди,Цунди (Цунды),Цунди,Цунти,210,229,194,368,42.740996,46.436577,Daghestan,Гумбетовский,1735.38671875,,Гумбетовский,42.740996,46.436577
583,Shodroda (Shadroda),Шодрода,Avar,,Avar,,TRUE,Шодрода,Шодрода (Шодраль),Шодрода,Шодрода,453,436,572,807,42.678426,46.12155,Daghestan,Ботлихский,1205.69384765625,,Ботлихский,42.678426,46.12155
657,Aymaki,Аймаки,Avar,,Avar,,TRUE,Аймаки,Аймаки (Аймеки),Аймаки,Аймаки,663,748,884,2342,42.5342,47.1383,Daghestan,Гергебильский,1282.49133300781,,Гергебильский,,
659,Arkas,Аркас,Avar,,Avar,,TRUE,Аркась,Аркас (Гаркас),Аркас,Аркас,140,146,268,317,42.65194,47.13833,Daghestan,Буйнакский,1281.19482421875,,Буйнакский,,
661,,Хамхартала,Avar,,,,,,,Хамхартала,,,,36,,,,Daghestan,Буйнакский,,,Буйнакский,,
663,,ур.Кангалы,Avar,,,,,Ахатлы (Ахатль),Ахатлы (Ахатл),Ахатлы,,309,299,335,,,,Daghestan,Буйнакский,,,Буйнакский,"43,024602° 47,027819°",
665,Akhkent,Ахкент,Avar,,Avar,,TRUE,Ахкенты (Кахаб-росо),Ахкент (Кахаб-Росо),Ахкент,Ахкент,301,330,394,1248,42.57353,47.18488,Daghestan,Левашинский,1544.99975585938,,Левашинский,,
667,Gelli,Гели,Kumyk,,Kumyk,,TRUE,Гелли,Гелли,Гелла,Гели,2312,2390,1526,2796,42.7267,47.4014,Daghestan,Карабудахкентский,449.041198730469,,Карабудахкентский,,
669,Adanak,Аданак,Kumyk,,Kumyk,,TRUE,,,Аданак,Аданак,,,19,1464,42.7522,47.4586,Daghestan,Карабудахкентский,297.048889160156,,Карабудахкентский,42.7522,47.4586
671,Buglen,Буглен,Kumyk,,Kumyk,,TRUE,Буглен,Буглен (Бугулен),Буглен,,1012,942,816,,42.7553,47.1989,Daghestan,Карабудахкентский,521.49658203125,явно одно и то же село,Карабудахкентский,,
671,,Буглен,Kumyk,,,,,Буглен,Буглен (Бугулен),Буглен,,1012,942,816,,,,Daghestan,Карабудахкентский,,явно одно и то же село,Карабудахкентский,,
673,,кутан Дардур,Kumyk,,,,,,,Дарзур,,,,67,,,,Daghestan,Карабудахкентский,,,Карабудахкентский,,
675,,Карти-Котан,Kumyk,,,,,,,Карти-Котан,,,,15,,,,Daghestan,Карабудахкентский,,,Карабудахкентский,,
677,Dorgeli,Доргели,Kumyk,,Kumyk,,TRUE,Дургали (Дургели),Дургели (Дургали),Дургели,Доргели,4291,4620,3130,5781,42.66556,47.29667,Daghestan,Карабудахкентский,667.396423339844,,Карабудахкентский,42.66556,47.29667
679,,Аданак-Котан,Kumyk,,,,,,,Аданак-Котан,,,,14,,,,Daghestan,Карабудахкентский,,,Карабудахкентский,,
681,Kaka,Кака,Kumyk,,Lezgian,,FALSE,,,Кака,,,,42,,41.478513,47.636857,Daghestan,Карабудахкентский,1143.21435546875,?,Карабудахкентский,–,
681,,Кака,Kumyk,,,,,,,Кака,,,,42,,,,Daghestan,Карабудахкентский,,?,Карабудахкентский,–,
683,,Кака-Кас,Kumyk,,,,,,,Кака-Кас,,,,21,,,,Daghestan,Карабудахкентский,,,Карабудахкентский,,
685,,Какали-Баш,Kumyk,,,,,,,Какали-Баш,,,,36,,,,Daghestan,Карабудахкентский,,,Карабудахкентский,,
687,,Конабур-Котан,Kumyk,,,,,,,Конабур-Котан,,,,105,,,,Daghestan,Карабудахкентский,,,Карабудахкентский,,
689,,Кона-Котан,Kumyk,,,,,,,Кона-Котан,,,,32,,,,Daghestan,Карабудахкентский,,,Карабудахкентский,,
691,,Контук-Баш,Kumyk,,,,,,,Контук-Баш,,,,8,,,,Daghestan,Карабудахкентский,,,Карабудахкентский,,
693,,Мирза-Аул,Dargwa,сев.,,,,,,Мирза-Аул,,,,31,,,,Daghestan,Карабудахкентский,,,Карабудахкентский,,
695,,Нан-Котан,Kumyk,,,,,,,Нан-Котан,,,,7,,,,Daghestan,Карабудахкентский,,,Карабудахкентский,,
697,,Тершаил,Kumyk,,,,,,,Тершаил,,,,18,,,,Daghestan,Карабудахкентский,,,Карабудахкентский,,
699,,Югары-Котан,Kumyk,,,,,,,Югары-Котан,,,,14,,,,Daghestan,Карабудахкентский,,,Карабудахкентский,,
701,Verkhniy Dzhengutay,Верхний Дженгутай,Avar,,Avar,,TRUE,Джентугай верхний (Таса-Жунгут),"Дженгутай Малый, Вехний (Иогары-Дженгутай, по-кумыкски Вехний Дженгутай; Таса-Жунгут, по-аварски Верхний Дженгутай)",Дженгутай В.,Верхний Дженгутай,1856,1756,1479,2145,42.67476,47.23415,Daghestan,Буйнакский,742.350402832031,,Буйнакский,42.67476,47.23415
703,Nizhniy Dzhengutay,Нижний Дженгутай,Kumyk,,Kumyk,,TRUE,Джентугай нижний,"Дженгутай Большой, Нижний (Тюменги-Дженгутай, по-кумыкски Нижний Дженгутай, Гортль-Жунгут, по-аварски Нижний Дженгутай)",Дженгутай Н.,Нижний Дженгутай,4733,4314,4264,7517,42.7014,47.2417,Daghestan,Буйнакский,625.9912109375,,Буйнакский,42.7014,47.2417
705,Durangi,Дуранги,Avar,,Avar,,TRUE,Дуранги,Дуранги,Дуранги,Дуранги,329,342,345,553,42.63571,47.22366,Daghestan,Буйнакский,1040.05541992188,,Буйнакский,42.63571,47.22366
707,,Нахадурали,Avar,,,,,,,Нахадурали,,,,79,,,,Daghestan,Буйнакский,,,Буйнакский,,
709,Nizhnie Ishkarty,Нижний Ишкарты,Kumyk,,Kumyk,,TRUE,Ишкарты,Ишкарты,Ишкарты,Нижнее Ишкарты,631,551,539,1002,42.84698,46.97147,Daghestan,Буйнакский,815.533447265625,"в википедии Нижнее Ишкарты, на картах Нижние Ишкарты",Буйнакский,42.84698,46.97147
711,Verkhnie Ishkarty,Верхний Ишкарты,Kumyk,,Kumyk,,TRUE,,,Ишкарты Вер.,Верхнее Ишкарты,,,180,377,42.84907,46.95309,Daghestan,Буйнакский,848.094116210937,"в Википедии Верхнее, на картах Верхние",Буйнакский,42.84907,46.95309
713,Kadar,Кадар,Dargwa,кадар.,Dargwa,,TRUE,Кадар (Гадар),Кадар (Гадар),Кадар,Кадар,3261,3214,1530,2276,42.6242,47.2903,Daghestan,Буйнакский,1107.490234375,,Буйнакский,42.6242,47.2903
715,,Ванаков,Dargwa,кадар.,,,,,,Ванаков,,,,351,,,,Daghestan,Буйнакский,,,Буйнакский,,
717,,Ванашимахи,Dargwa,кадар.,,,,,,Ванаши,Ванашимахи,,,380,283,,,Daghestan,Буйнакский,,Буйнакский район,Буйнакский,42.627222,47.278889
717,,Ванашимахи,Dargwa,кадар.,,,,,,Ванаши,Ванашимахи,,,380,283,,,Daghestan,Буйнакский,,Сергокалинский район,Буйнакский,42.627222,47.278889
719,Karamakhi,Карамахи,Dargwa,кадар.,Dargwa,,TRUE,,,Кар,Карамахи,,,810,4489,42.618786,47.256653,Daghestan,Буйнакский,1071.24621582031,,Буйнакский,,
721,Kachkalyk,Качкалык,Dargwa,кадар.,Dargwa,,TRUE,,,Качилик,Качкалык,,,408,419,42.61852,47.33391,Daghestan,Буйнакский,1102.58630371094,,Буйнакский,,
723,,Нуай,Dargwa,кадар.,,,,,,Нуай,,,,244,,,,Daghestan,Буйнакский,,,Буйнакский,,
725,Verkhnee Kazanische,Верхнее Казанище,Kumyk,,Kumyk,,TRUE,Казанищи верхние,"Казанищи Малые, Верхние (Иогары-Казаниш)",Казанище В.,Верхнее Казанище,2019,1972,2438,6576,42.7306,47.1381,Daghestan,Буйнакский,725.3349609375,,Буйнакский,42.7306,47.1381
727,,Айламабут,Kumyk,,,,,,,Айламабут,,,,6,,,,Daghestan,Буйнакский,,,Буйнакский,,
729,,Гергиш-Тала Б.,Avar,,,,,,,Гергиш-Тала Б.,,,,54,,,,Daghestan,Буйнакский,,,Буйнакский,,
731,,Гергиш-Тала М.,Kumyk,,,,,,,Гергиш-Тала М.,,,,21,,,,Daghestan,Буйнакский,,,Буйнакский,,
733,,Кончиз,Kumyk,,,,,,,Кончиз,,,,5,,,,Daghestan,Буйнакский,,,Буйнакский,,
735,,Курукташ,Kumyk,,,,,,,Курукташ,,,,8,,,,Daghestan,Буйнакский,,,Буйнакский,,
737,,Очакай-Тала,Kumyk,,,,,,,Очакай-Тала,,,,19,,,,Daghestan,Буйнакский,,,Буйнакский,,
739,,Узун-Тала,Kumyk,,,,,,,Узун-Тала,,,,21,,,,Daghestan,Буйнакский,,,Буйнакский,,
741,,Уртарака,Kumyk,,,,,,,Уртарака,,,,15,,,,Daghestan,Буйнакский,,,Буйнакский,,
743,,Чоколук Авзу,Kumyk,,,,,,,Чоколук Авзу,,,,9,,,,Daghestan,Буйнакский,,,Буйнакский,,
745,Nizhnee Kazanische,Нижнее Казанище,Kumyk,,Kumyk,,TRUE,Казанищи большие нижние,"Казанищи Большие, Нижние (Тюменги-Казаныш)",Казанище Н.,Нижнее Казанище,4652,4926,4843,12865,42.7644,47.1611,Daghestan,Буйнакский,572.802368164063,,Буйнакский,42.7644,47.1611
747,,Алитала,Kumyk,,,,,,,Алитала,,,,5,,,,Daghestan,Буйнакский,,,Буйнакский,,
749,,разв. Альма-Терек,Kumyk,,,,,,,Алма-Дерек,,,,43,,,,Daghestan,Буйнакский,,,Буйнакский,"42,872230° 47,308099°",
751,,Арта-Арки,Kumyk,,,,,,,Арта-Арки,,,,7,,,,Daghestan,Буйнакский,,,Буйнакский,,
753,,разв. Бавлакол,Kumyk,,,,,,,Бавларкал,,,,59,,,,Daghestan,Буйнакский,,,Буйнакский,"42,878553° 47,359893°",
755,,Бакал,Kumyk,,,,,,,Бакал,,,,13,,,,Daghestan,Буйнакский,,,Буйнакский,,
757,,Багактул,Kumyk,,,,,,,Багактул,,,,4,,,,Daghestan,Буйнакский,,,Буйнакский,,
759,,Боралаго-Озло,Kumyk,,,,,,,Боралаго-Озло,,,,18,,,,Daghestan,Буйнакский,,,Буйнакский,,
761,,Бурчике,Kumyk,,,,,,,Бурчике,,,,12,,,,Daghestan,Буйнакский,,,Буйнакский,,
763,,Гашибит,Kumyk,,,,,,,Гашибит,,,,53,,,,Daghestan,Буйнакский,,,Буйнакский,,
765,,кутан Бугебулак,Kumyk,,,,,,,Караулка,,,,4,,,,Daghestan,Буйнакский,,,Буйнакский,"43,018434° 47,106125°",
767,,Ковус,Kumyk,,,,,,,Ковус,,,,14,,,,Daghestan,Буйнакский,,,Буйнакский,,
781,,кутан Муку,Kumyk,,,,,,,Мукку,,,,103,,,,Daghestan,Буйнакский,,,Буйнакский,"42,863812° 47,315695°",
783,,Сийлали,Kumyk,,,,,,,Сийлали,,,,32,,,,Daghestan,Буйнакский,,,Буйнакский,,
785,,разв. Сокуркака,Kumyk,,,,,,,Сокуркака,,,,5,,,,Daghestan,Буйнакский,,,Буйнакский,"42,887295° 47,401520°",
787,,Сувлука,Kumyk,,,,,,,Сувлука,,,,30,,,,Daghestan,Буйнакский,,,Буйнакский,,
789,,Темирхан-Капур,Kumyk,,,,,,,Темирхан-Капур,,,,31,,,,Daghestan,Буйнакский,,,Буйнакский,,
791,,кутан Тувар,Kumyk,,,,,,,Тув-аркитан,,,,44,,,,Daghestan,Буйнакский,,,Буйнакский,"42,857299° 47,375797°",
793,,кутан Уллу-Су,Kumyk,,,,,,,Улусув,,,,42,,,,Daghestan,Буйнакский,,,Буйнакский,"42,913858° 47,348353°",
795,,кутан Айваликол,Kumyk,,,,,,,Хайвали-Кал,,,,41,,,,Daghestan,Буйнакский,,,Буйнакский,"42,890472° 47,283864°",
797,,Хамхарчи-Точе,Avar,,,,,,,Хамхарчи-Точе,,,,19,,,,Daghestan,Буйнакский,,,Буйнакский,,
799,,кутан Эльмеликол,Kumyk,,,,,,,Элымеликал,,,,19,,,,Daghestan,Буйнакский,,,Буйнакский,"42,905532° 47,316280°",
801,Kaka-Shura,Кака-Шура,Kumyk,,Kumyk,,TRUE,Кака-Шура,Кака-Шура,Кака-Шура,Кака-Шура,3626,3922,3090,6030,42.65194,47.38278,Daghestan,Карабудахкентский,743.291320800781,,Карабудахкентский,42.65194,47.38278
803,,Какамахи,Kumyk,,,,,,,Кака-Махи,Какамахи,,,71,1270,,,Daghestan,Карабудахкентский,,Карабудахкентский район,Карабудахкентский,,
803,Kakamakhi,Какамахи,Kumyk,,Dargwa,,FALSE,,,Кака-Махи,Какамахи,,,71,1270,42.39507,47.30644,Daghestan,Карабудахкентский,1298.25524902344,Левашинский район,Карабудахкентский,,
805,,ур. Курте,Kumyk,,,,,,,Курти Махи,,,,180,,,,Daghestan,Карабудахкентский,,,Карабудахкентский,"42,630015° 47,413725°",
807,,ур.Маралмахи,Kumyk,,,,,,,Мараул-Тала,,,,74,,,,Daghestan,Карабудахкентский,,,Карабудахкентский,"42,664485° 47,449132°",
809,,ур.Хурсанмахи,Kumyk,,,,,,,Хурса-Махи,,,,75,,,,Daghestan,Карабудахкентский,,,Карабудахкентский,"42,632942° 47,394360°",
811,,ур.Капчугай,Kumyk,,,,,Капчуагй,Капчугай,Капчугай,,589,445,524,,,,Daghestan,Кумторкалинский,,,Кумторкалинский,"42,966371° 47,182335°",
813,Uchkent,Учкент,Kumyk,,Avar,,FALSE,,,Алмалы,Учкент,,,26,3699,43.1136,47.0794,Daghestan,Кумторкалинский,131.461624145508,,Кумторкалинский,,
817,Verkhniy Karanay,Верхний Каранай,Avar,,Avar,,TRUE,Каранай верхний,Каранай Верхний (Новый),Каранай Верх.,Верхний Каранай,778,850,1161,737,42.8281,46.9072,Daghestan,Буйнакский,1230.20056152344,,Буйнакский,42.8281,46.9072
819,,Богатырь,Avar,,,,,,,Богатырь,,,,78,,,,Daghestan,Буйнакский,,,Буйнакский,,
821,Gindib,Гинта,Avar,,Avar,,TRUE,,,Гинта,,,,78,,42.11296,46.50397,Daghestan,Буйнакский,2013.51049804687,,Буйнакский,–,
821,Ginta,Гинта,Avar,,Dargwa,,FALSE,,,Гинта,,,,78,,42.2042,47.4186,Daghestan,Буйнакский,1588.97143554688,,Буйнакский,–,
823,Nizhniy Karanay,Нижний Каранай,Avar,,Avar,,TRUE,Каранай нижний,Каранай Нижний (Старый),Каранай Ниж.,Нижний Каранай,658,659,462,192,42.84729,46.940488,Daghestan,Буйнакский,906.682434082031,,Буйнакский,42.84729,46.940488
825,Kafyr-Kumukh,Кафыр-Кумух,Kumyk,,Kumyk,,TRUE,Кафыр-Кумух (Кацир-Кумык),"Кафыр-Кумух (Кафыр-Кумык, Кяпир-К.)",Кафыр-Кумух,Кафыр-Кумух,1298,1116,1227,5103,42.83754,47.15412,Daghestan,Буйнакский,369.482421875,,Буйнакский,42.83754,47.15412
827,,кутан Актёбе,Kumyk,,,,,,,Актюбе,,,,11,,,,Daghestan,Буйнакский,,,Буйнакский,"42,892855° 47,203860°",
835,,кутан Кесек-Арт,Kumyk,,,,,,,Гесек-Арт,,,,14,,,,Daghestan,Буйнакский,,,Буйнакский,"42,866879° 47,172618°",
837,,Губур-Га,Kumyk,,,,,,,Губур-Га,,,,6,,,,Daghestan,Буйнакский,,,Буйнакский,,
839,,кутан Каратебе,Kumyk,,,,,,,Кара-Тюбе,,,,12,,,,Daghestan,Буйнакский,,,Буйнакский,"42,910145° 47,165150°",
841,,Кара-Тюбе Вер.,Kumyk,,,,,,,Кара-Тюбе Вер.,,,,6,,,,Daghestan,Буйнакский,,,Буйнакский,,
843,,кутан Кар-Кар,Kumyk,,,,,,,Каркар-Кантон,,,,8,,,,Daghestan,Буйнакский,,,Буйнакский,"42,861381° 47,223961°",
845,,Мельница вод.,Kumyk,,,,,,,Мельница вод.,,,,6,,,,Daghestan,Буйнакский,,,Буйнакский,,
847,,Мельница № 4,Kumyk,,,,,,,Мельница № 4,,,,4,,,,Daghestan,Буйнакский,,,Буйнакский,,
849,Takalay,Такалай,Kumyk,,Kumyk,,TRUE,,,Такалай,Такалай,,,15,414,42.89677,47.1644,Daghestan,Буйнакский,255.221237182617,,Буйнакский,42.89677,47.1644
851,Kuletsma,Кулецма,Avar,,Avar,,TRUE,Кулецма,Кулецма,Кулецма,Кулецма,1439,1525,1246,2175,42.5556,47.2339,Daghestan,Левашинский,1368.48461914063,,Левашинский,42.5556,47.2339
853,Manasaul,Манасаул,Avar,,Avar,,TRUE,Манас-аул,Манас-аул,Манас-Аул,Манасаул,223,269,496,629,42.7575,47.0397,Daghestan,Буйнакский,825.83642578125,,Буйнакский,42.7575,47.0397
855,Agachkala,Агачкала,Kumyk,,Kumyk,,TRUE,Агач-Кала,,Агач-Кала,Агачкала,24,,90,447,42.76698,47.07599,Daghestan,Буйнакский,686.41064453125,,Буйнакский,,
859,,Атланаул,Kumyk,,,,,Муселим-аул,Муселим-аул,Муселим-Аул,Атланаул,661,557,688,2375,,,Daghestan,Буйнакский,,,Буйнакский,,
861,Okhli,Охли,Avar,,Avar,,TRUE,Оглы (Уихли),Оглы,Огли,Охли,1138,1110,1366,1900,42.55565,47.209281,Daghestan,Левашинский,1427.74426269531,,Левашинский,,
863,Paraul,Параул,Kumyk,,Kumyk,,TRUE,Цараул,Параул,Параул,Параул,2597,2496,2088,4949,42.7394,47.3592,Daghestan,Карабудахкентский,418.601318359375,,Карабудахкентский,42.7394,47.3592
865,,Гляндур,Kumyk,,,,,,,Гляндур,,,,49,,,,Daghestan,Карабудахкентский,,,Карабудахкентский,,
867,Urma,Урма,Avar,,Avar,,TRUE,Урма,Урма,Урма,Урма,1152,1250,1429,3861,42.5383,47.2869,Daghestan,Левашинский,1192.36279296875,,Левашинский,42.5383,47.2869
869,,ур.Ачаби,Avar,,,,,,,Учаби,,,,94,,,,Daghestan,Левашинский,,,Левашинский,"42,535270° 47,336200°",
871,Khalimbekaul,Халимбекаул,Kumyk,,Kumyk,,TRUE,Халим-бек-аул,Халим-бек-аул,Халимбек-Аул,Халимбекаул,979,841,1100,5011,42.8447,47.1406,Daghestan,Буйнакский,373.521728515625,,Буйнакский,42.8447,47.1406
873,Apshi,Апши,Kumyk,,Avar,,FALSE,Анши (Ганши),"Апши (Абши, Г-)",Хапши,Апши,1487,1431,1832,1655,42.6094,47.1742,Daghestan,Буйнакский,1209.52526855469,,Буйнакский,42.6094,47.1742
875,,Бухна-Бака,Avar,,,,,,,Бухна-Бака,,,,12,,,,Daghestan,Буйнакский,,,Буйнакский,,
877,,Чиркейская ГЭС,Avar,,,,,,,Черкей Стар.,,,,2640,,,,Daghestan,Казбековский,,,Казбековский,"42,973850° 46,872503°",
879,Akaytala,Акайтала,Avar,,Avar,,TRUE,,,Акайтала,Акайтала,,,197,688,43.03176,46.92583,Daghestan,Буйнакский,475.864715576172,,Буйнакский,43.03176,46.92583
881,,Ахмадатор,Avar,,,,,,,Ахмадатор,,,,50,,,,Daghestan,Буйнакский,,,Буйнакский,–,
883,,ур.Аччи,Avar,,,,,,,Ачи,,,,26,,,,Daghestan,Буйнакский,,,Буйнакский,"42,907798° 46,956030°",
885,,ур.Ахмей-Отар,Avar,,,,,,,Гергитала,,,,67,,,,Daghestan,Кизилюртовский,,,Кизилюртовский,"43,112539° 46,971379°",
887,,Дуржул,Avar,,,,,,,Дуржул,,,,113,,,,Daghestan,Буйнакский,,,Буйнакский,,
889,,кут.Кака,Avar,,,,,,,Кака,,,,305,,,,Daghestan,Кизилюртовский,,,Кизилюртовский,"43,121435° 46,978675°",
891,,Качмас,Avar,,,,,,,Качмас,,,,24,,,,Daghestan,Буйнакский,,,Буйнакский,,
893,,разв.Мугу-Тола,Avar,,,,,,,Мухутала,,,,93,,,,Daghestan,Буйнакский,,,Буйнакский,"43,043937° 46,901843°",
895,,бывший Черкей,Avar,,,,,Чиркей новый,Чиркей Новый (Черкей Новый),Черкей Нов.,,894,821,345,,,,Daghestan,Буйнакский,,,Буйнакский,"42,972280° 46,894390°",
897,,Чоригал,Avar,,,,,,,Чоригал,,,,32,,,,Daghestan,Буйнакский,,,Буйнакский,,
899,Orada-Chugli,Орада Чугли,Avar,,Avar,,TRUE,Чоглы (Чуули),Чоглы,Чугли,Орада Чугли,403,470,452,982,42.49384,47.22264,Daghestan,Левашинский,1537.54565429688,,Левашинский,,
901,,Амирала,Avar,,,,,,,Амирала,,,,35,,,,Daghestan,Левашинский,,,Левашинский,,
903,Erpeli,Эрпели,Kumyk,,Kumyk,,TRUE,Эрцели (Ерцели),Эрпели (Ерпели),Эрпели,Эрпели,2548,2929,2397,3415,42.806119,46.973557,Daghestan,Буйнакский,798.257934570313,,Буйнакский,42.806119,46.973557
905,,кутан Акайбулак,Kumyk,,,,,,,Акай-Булак,,,,74,,,,Daghestan,Кумторкалинский,,,Кумторкалинский,"43,071438° 47,086126°",
907,,Канят-Булак,Kumyk,,,,,,,Канят-Булак,,,,5,,,,Daghestan,–,,,–,,
909,,кут.Кудуш,Kumyk,,,,,,,Кудуш,,,,145,,,,Daghestan,Буйнакский,,,Буйнакский,"42,853586° 47,031960°",
911,,Темир-Чекарик,Kumyk,,,,,,,Темир-Чекарик,,,,5,,,,Daghestan,–,,,–,,
913,,кутан Чем-Аул,Kumyk,,,,,,,Чумочул,,,,122,,,,Daghestan,Буйнакский,,,Буйнакский,"42,947858° 47,054455°",
915,,ур.Шамхалбулак,Kumyk,,,,,,,Шамхал-Булак,,,,265,,,,Daghestan,Кумторкалинский,,,Кумторкалинский,43.093486,47.020591
917,Ekibulak,Экибулак,Kumyk,,Kumyk,,TRUE,,,Эки-Булак,Экибулак,,,130,111,43.04196,47.07152,Daghestan,Буйнакский,268.952178955078,,Буйнакский,43.04196,47.07152
919,,Без названия,Kumyk,,,,,,,Без названия,,,,83,,,,Daghestan,??,,,??,,
921,Archib,Арчиб,Archi,верхне-андийски,Archi,,TRUE,Арчи (Ручь),Арчи (Ручь),Арчи,Арчиб,804,765,126,200,42.0664,46.8678,Daghestan,Чародинский,2009.66833496094,,Чародинский,,
923,,Алчуниб,Archi,верхне-андийски,,,,,,Алчуни,Алчуниб,,,189,193,,,Daghestan,Чародинский,,,Чародинский,42.05196,46.86943
925,Kalib,Калиб,Archi,верхне-андийски,Archi,,TRUE,,,Кала,Калиб,,,43,0,42.07054,46.86002,Daghestan,Чародинский,2117.40405273438,,Чародинский,"42,070124° 46,860793°",
927,Keserib,Кесериб,Archi,верхне-андийски,Archi,,TRUE,,,Кесера,Кесериб,,,76,82,42.0647,46.888,Daghestan,Чародинский,2487.88452148437,,Чародинский,42.0647,46.888
929,Kubatl',Кубатль,Archi,верхне-андийски,Archi,,TRUE,,,Кубак,Кубатль,,,100,120,42.03659,46.85973,Daghestan,Чародинский,2160.43139648437,,Чародинский,,
931,Khilikh,Хилих,Archi,верхне-андийски,Archi,,TRUE,,,Хилих,Хилих,,,165,248,42.05838,46.88751,Daghestan,Чародинский,2284.55786132813,,Чародинский,42.05838,46.88751
933,Khitab,Хитаб,Archi,верхне-андийски,Archi,,TRUE,,,Хитаб,Хитаб,,,157,273,42.07538,46.867234,Daghestan,Чародинский,1982.42175292969,,Чародинский,42.07538,46.867234
935,Chitab,Читаб,Avar,,Avar,,TRUE,Читыми (Читау),"Чита (Читыми, Читалу)",Чита,Читаб,189,199,190,200,42.10412,46.86914,Daghestan,Чародинский,1987.51989746094,,Чародинский,42.10412,46.86914
937,,Читинская мельница,Avar,,,,,,,Читинская мельница,,,,0,,,,Daghestan,Чародинский,,,Чародинский,,
939,Batsada,Бацада,Avar,,Avar,,TRUE,Бацада,Бацада (Бецъ),Бацада,Бацада,725,835,877,755,42.3036,46.9092,Daghestan,Гунибский,1580.35974121094,,Гунибский,,
941,,Ахнада,Avar,,,,,,,Ахнада,,,,47,,,,Daghestan,Гунибский,,,Гунибский,42.3204,46.8733
943,Kulla,Кулла,Avar,,Avar,,TRUE,Кула,Кулла (Куллабъ),Кулла,Кулла,557,590,423,27,42.31346,46.91014,Daghestan,Гунибский,1265.73559570313,,Гунибский,42.31346,46.91014
945,Gergebil',Гергебиль,Avar,,Avar,,TRUE,Гергебиль (Хергеб),Гергебиль (Хергебъ),Гергебель,Гергебиль,1193,1310,1489,5196,42.5047,47.0661,Daghestan,Гергебильский,729.883544921875,,Гергебильский,42.5047,47.0661
947,Gilib,Гилиб,Avar,,Avar,,TRUE,Гилиб (Гили),Гиллиб (Гиллихи),Гилиб,Гилиб,462,463,438,642,42.1169,46.7761,Daghestan,Чародинский,1775.21081542969,,Чародинский,42.1169,46.7761
949,Goab,Гоаб,Avar,,Avar,,TRUE,Гоаб (Куа),"Гоаб (Гоа, Гоабго)",Гоаб,Гоаб,274,269,332,234,42.097185,46.738407,Daghestan,Чародинский,2287.03784179687,,Чародинский,42.097185,46.738407
951,Doronub,Доронуб,Avar,,Avar,,TRUE,Дарану (Дарануб),Дарануб,Доронуб,Доронуб,123,131,111,150,42.124689,46.809427,Daghestan,Чародинский,1876.57202148438,,Чародинский,,
953,Karanub,Карануб,Avar,,Avar,,TRUE,Карануб (Карану),Карануб,Каранаб,Карануб,194,197,145,161,42.12262,46.81777,Daghestan,Чародинский,1978.08190917969,,Чародинский,,
955,Kutikh,Кутих,Avar,,Avar,,TRUE,Кутих,Кутихъ (Кутыхъ),Кутых,Кутих,205,233,114,224,42.12587,46.78902,Daghestan,Чародинский,1737.69897460938,,Чародинский,42.12587,46.78902
957,Gogotl',Гоготль,Avar,,Avar,,TRUE,Гоготль,Гоготль,Гогатль,Гоготль,450,482,436,466,42.45481,46.76547,Daghestan,Шамильский,1407.38830566406,,Шамильский,42.45481,46.76547
959,Gonoda,Гонода,Avar,,Avar,,TRUE,Гонода,Гонода (Гунада),Гонода,Гонода,599,637,639,1415,42.4697,46.7892,Daghestan,Гунибский,1281.41650390625,,Гунибский,42.4697,46.7892
961,Gochada,Гочада,Avar,,Avar,,TRUE,Гачада (Хачада),Гачада,Гочада,Гочада,622,661,459,147,42.272626,46.765272,Daghestan,Чародинский,1557.75549316406,,Чародинский,42.272626,46.765272
963,Gunukh,Гунух,Avar,,Avar,,TRUE,Гонок,Гонохъ (Гонокъ),Гонох,Гунух,326,331,317,87,42.28043,46.76307,Daghestan,Чародинский,1780.0693359375,,Чародинский,"42,280458° 46,762541°",
965,Murukh,Мурух,Avar,,Avar,,TRUE,Мурух,Мурухъ,Мурух,Мурух,59,58,69,82,42.27719,46.7715,Daghestan,Чародинский,1780.49597167969,,Чародинский,42.27719,46.7715
967,Tlyarosh,Тлярош,Avar,,Avar,,TRUE,Тлярош,Тлорошъ (Тлешъ),Тлярош,Тлярош,486,713,548,410,42.275317,46.751805,Daghestan,Чародинский,1588.35888671875,,Чародинский,42.275317,46.751805
969,Talukh,Талух,Avar,,Avar,,TRUE,Тлалух,Тлалухъ (Тлалхалъ),Тлянух,Талух,190,159,179,95,42.25652,46.74433,Daghestan,Чародинский,1978.36560058594,,Чародинский,,
971,,Цор,Avar,,,,,,,Цор,,,,2,,,,Daghestan,Чародинский,,,Чародинский,,
973,Gochob,Гочоб,Avar,,Avar,,TRUE,Гочоб,Гочоб,Гочоб,Гочоб,688,765,702,476,42.2375,46.6642,Daghestan,Чародинский,2019.77404785156,,Чародинский,42.2375,46.6642
975,Urukh-Sota,Урух-Сота,Avar,,Avar,,TRUE,Урух-Сота (Ерух-Сота),"Урухъ-Сота (Сота, Сал)",Урух-Сота,Урух-Сота,175,168,193,151,42.24222,46.67694,Daghestan,Чародинский,1820.29016113281,,Чародинский,42.24222,46.67694
977,Dusrakh,Дусрах,Avar,,Avar,,TRUE,Дусрек (Диси),Дусрек (Риси),Дусрак,Дусрах,333,333,315,280,42.1275,46.8792,Daghestan,Чародинский,1872.45385742188,,Чародинский,42.1275,46.8792
979,,Кехаб,Avar,,,,,,,Кехаб,,,,43,,,,Daghestan,Чародинский,,,Чародинский,,
981,Kosroda,Косрода,Avar,,Avar,,TRUE,Косрода (Тлберола (?)),"Косрода (Кусрода, Тлосрода)",Косрода,Косрода,208,205,186,114,42.13141,46.85829,Daghestan,Чародинский,2096.43188476563,,Чародинский,42.13141,46.85829
983,Kuchrab,Кучраб,Avar,,Avar,,TRUE,"Кучра (Кучур, Очур)","Кучра (Кучур, Кучрейми, Очур)",Кучраб,Кучраб,296,313,292,46,42.17506,46.90244,Daghestan,Чародинский,2011.05798339844,,Чародинский,42.17506,46.90244
985,Mogrob,Могроб,Avar,,Avar,,TRUE,Мугра (Муграйми),Мугра (Муграйми),Могроб,Могроб,110,109,90,16,42.15672,46.86521,Daghestan,Чародинский,1958.77600097656,,Чародинский,42.15672,46.86521
987,Chvadab,Чвадаб,Avar,,Avar,,TRUE,Чадейми (Чуала),Чадейми (чада),Чадаб,Чвадаб,208,213,151,109,42.13028,46.87639,Daghestan,Чародинский,1856.01721191406,,Чародинский,,
989,,Чильдаб,Avar,,,,,Чилейми (Чильди),"Чилейми (Чильди, Чиляйми)",Чильда,Чильдаб,140,155,134,0,,,Daghestan,Чародинский,,,Чародинский,,
991,Chanab,Чанаб,Avar,,Avar,,TRUE,Чукна (Чукун),"Чукни (Чукна, Чукун, Чанаб)",Чукнаб,Чанаб,105,113,104,16,42.125345,46.90434,Daghestan,Чародинский,2298.3974609375,,Чародинский,,
993,Irib,Ириб,Avar,,Avar,,TRUE,Ириб (Ири),Ириб (Ири),Ириб,Ириб,562,555,460,1108,42.1606,46.8169,Daghestan,Чародинский,1646.95629882813,,Чародинский,42.1606,46.8169
995,,Мукрах,Avar,,,,,Мукрак,Мукрахъ (Макралъ),Мукрах,,63,59,61,,,,Daghestan,Чародинский,,,Чародинский,,
997,Nukush,Нукуш,Avar,,Avar,,TRUE,Нукуш,Нукушъ,Нукуш,Нукуш,246,255,168,175,42.1492,46.80579,Daghestan,Чародинский,1697.74047851563,,Чародинский,42.1492,46.80579
999,Rul'dab,Рульдаб,Avar,,Avar,,TRUE,Рульда,Рульда,Рульда,Рульдаб,147,145,153,37,42.18472,46.85028,Daghestan,Чародинский,1990.74951171875,,Чародинский,42.18472,46.85028
1001,Tsemer,Цемер,Avar,,Avar,,TRUE,Семер (Цемер),Семеръ (Цемеръ),Семер,Цемер,270,285,232,209,42.15195,46.75296,Daghestan,Чародинский,2093.41723632813,,Чародинский,42.15195,46.75296
1003,,Тляробазутль,Avar,,,,,Тларабзутль,Тлярабазутль,Тлярабазутль,Тляробазутль,184,174,128,95,,,Daghestan,Чародинский,,,Чародинский,42.14039,46.77575
1005,Khinub,Хинуб,Avar,,Avar,,TRUE,Хинаб (Хину),Хинуб (Хинубал),Хинуб,Хинуб,291,289,280,305,42.17454,46.82406,Daghestan,Чародинский,1703.35925292969,,Чародинский,42.17454,46.82406
1007,Kakhib,Кахиб,Avar,,Avar,,TRUE,Кахиб (Кахи),"Кахибъ (Кахи, Кахи-Хиндахъ, Кахевъ)",Кахиб,Кахиб,1610,1682,1312,1090,42.4272,46.5969,Daghestan,Шамильский,1575.30969238281,,Шамильский,42.4272,46.5969
1009,Goor,Гоор,Avar,,Avar,,TRUE,Гоор (Гори),Гооръ,Гоор,Гоор,932,896,813,809,42.43339,46.56927,Daghestan,Шамильский,1554.23571777344,,Шамильский,42.43339,46.56927
1011,Verkhniy Kolob,Верхний Колоб,Avar,,Avar,,TRUE,,,Керта-Коло,Верхний Колоб,,,159,81,42.42614,46.6579,Daghestan,Шамильский,1733.33654785156,,Шамильский,,
1013,Kienikh,Киэних,Avar,,Avar,,TRUE,,,Кийних,Киэних,,,63,25,42.43056,46.66639,Daghestan,Шамильский,1386.07824707031,,Шамильский,,
1015,Mokoda,Мокода,Avar,,Avar,,TRUE,,,Мокада,Мокода,,,90,100,42.42385,46.66963,Daghestan,Шамильский,1630.724609375,,Шамильский,42.42385,46.66963
1017,Nizhniy Kolob,Нижний Колоб,Avar,,Avar,,TRUE,,,Тасса-Колоб,Нижний Колоб,,,102,52,42.430087,46.659303,Daghestan,Шамильский,1572.13549804688,,Шамильский,,
1019,Khamakal,Хамакал,Avar,,Avar,,TRUE,,,Хама-Калах,Хамакал,,,51,122,42.428109,46.674497,Daghestan,Шамильский,1427.66430664063,,Шамильский,42.428109,46.674497
1021,Goor-Khindakh,Гоор-Хиндах,Avar,,Avar,,TRUE,,,Хиндах,Гоор-Хиндах,,,103,267,42.449273,46.575312,Daghestan,Шамильский,1042.85363769531,,Шамильский,,
1023,,Хорода,Avar,,,,,,,Хорода,Хорода,,,113,196,,,Daghestan,Шамильский,,Тляратинский район,Шамильский,,
1023,,Хорода,Avar,,,,,,,Хорода,Хорода,,,113,196,,,Daghestan,Шамильский,,Шамильский район,Шамильский,,
1025,Chvadab,Чудиб,Avar,,Avar,,TRUE,,,Чудиб,,,,35,,42.13028,46.87639,Daghestan,Шамильский,1856.01721191406,,Шамильский,,
1027,Keger,Кегер,Avar,,Avar,,TRUE,Кегер,"Кегеръ (Когеръ, Кагалъ)",Кегер,Кегер,608,3475,709,596,42.3767,47.0275,Daghestan,Гунибский,1499.56359863281,,Гунибский,42.3767,47.0275
1029,,Укитль,Avar,,,,,,,Укитль,,,,81,,,,Daghestan,Гунибский,,,Гунибский,,
1031,Kikuni,Кикуни,Avar,,Avar,,TRUE,Кикуны (Кикуни),Кикуны (Кикуни),Кикуни,Кикуни,1081,943,1008,3224,42.513979,47.036122,Daghestan,Гергебильский,654.801574707031,,Гергебильский,42.513979,47.036122
1033,Akushali,Акушали,Avar,,Avar,,TRUE,,,Акушали,Акушали,,,85,51,42.4992,46.9504,Daghestan,Гергебильский,1617.04846191406,,Гергебильский,42.4992,46.9504
1035,Iputa,Ипута,Avar,,Avar,,TRUE,,,Ината,Ипута,,,217,97,42.47852,46.96592,Daghestan,Гергебильский,1454.63317871094,,Гергебильский,,
1037,,ур.Хулиб,Avar,,,,,,,Хулиб,,,,106,,,,Daghestan,Гергебильский,,,Гергебильский,"42,479344° 46,992764°",
1039,Koroda,Корода,Avar,,Avar,,TRUE,Корода,Корода,Корода,Корода,1507,1456,1380,939,42.44961,46.846988,Daghestan,Гунибский,856.593078613281,,Гунибский,42.44961,46.846988
1041,Karadakh,Карадах,Avar,,Avar,,TRUE,,,Карадах,Карадах,,,9,392,42.471023,46.863724,Daghestan,Гунибский,706.875061035156,,Гунибский,42.471023,46.863724
1043,Kudali,Кудали,Avar,,Avar,,TRUE,Кудали,Кудали,Кудали,Кудали,978,967,1122,914,42.3678,47.0789,Daghestan,Гунибский,1412.06433105469,,Гунибский,42.3678,47.0789
1045,Silta,Силта,Avar,,Avar,,TRUE,,,Сильта,Силта,,,155,258,42.38728,47.07127,Daghestan,Гунибский,1230.88171386719,,Гунибский,42.38728,47.07127
1047,,Абдуразда,Avar,,,,,,,Абдуразда,,,,10,,,,Daghestan,Гунибский,,,Гунибский,,
1049,,Амир-Харик,Avar,,,,,,,Амир-Харик,,,,36,,,,Daghestan,Гунибский,,,Гунибский,,
1051,Agada,Агада,Avar,,Avar,,TRUE,,,Ахада,Агада,,,35,45,42.412001,46.841895,Daghestan,Гунибский,1210.09204101563,,Гунибский,"42,413046° 46,840817°",
1053,,Ачада,Avar,,,,,,,Ачада,,,,6,,,,Daghestan,Гунибский,,,Гунибский,,
1055,,Балдутль,Avar,,,,,,,Багдутль,Балдутль,,,41,11,,,Daghestan,Гунибский,,,Гунибский,,
1057,Balanub,Балануб,Avar,,Avar,,TRUE,,,Баланаб,Балануб,,,120,115,42.4284,46.8251,Daghestan,Гунибский,1032.0556640625,,Гунибский,42.4284,46.8251
1059,,Басар,Avar,,,,,,,Басар,Басар,,,20,13,,,Daghestan,Гунибский,,,Гунибский,42.423889,46.793333
1061,,Бацикварих,Avar,,,,,,,Баци-Карюх,Бацикварих,,,18,3,,,Daghestan,Гунибский,,,Гунибский,42.408056,46.858611
1063,,Бетер,Avar,,,,,,,Бетер,,,,50,,,,Daghestan,Гунибский,,,Гунибский,,
1065,,Газилала,Avar,,,,,,,Галла,Газилала,,,92,12,,,Daghestan,Гунибский,,,Гунибский,,
1067,Dadulazda,Дадулазда,Avar,,Avar,,TRUE,,,Дабулада,Дадулазда,,,66,26,42.4189,46.80373,Daghestan,Гунибский,1259.15344238281,,Гунибский,,
1069,Ivaylazda,Ивайлазда,Avar,,Avar,,TRUE,,,Иваназда,Ивайлазда,,,32,73,42.42,46.79917,Daghestan,Гунибский,1323.56298828125,,Гунибский,42.42,46.79917
1071,,Кодух,Avar,,,,,,,Кодух,,,,39,,,,Daghestan,Гунибский,,,Гунибский,,
1073,Kuker,Кукер,Avar,,Avar,,TRUE,,,Кукер,Кукер,,,74,16,42.43106,46.80982,Daghestan,Гунибский,1260.38891601563,,Гунибский,42.43106,46.80982
1075,Lakhchayda,Лахчайда,Avar,,Avar,,TRUE,,,Лахчанда,Лахчайда,,,32,42,42.41345,46.8378,Daghestan,Гунибский,1201.39685058594,,Гунибский,42.41345,46.8378
1077,,Магомедхан,Avar,,,,,,,Магомедхан,,,,16,,,,Daghestan,Гунибский,,,Гунибский,,
1079,,Мучула,Avar,,,,,,,Мучала,Мучула,,,9,0,,,Daghestan,Гунибский,,,Гунибский,42.38157,46.873433
1081,Mugdab,Мугдаб,Avar,,Avar,,TRUE,,,Мучтаб,Мугдаб,,,58,97,42.420445,46.807523,Daghestan,Гунибский,1234.60693359375,,Гунибский,,
1083,Rosutl',Росутль,Avar,,Avar,,TRUE,,,Росухль,Росутль,,,139,78,42.41533,46.8308,Daghestan,Гунибский,1162.03540039063,,Гунибский,42.41533,46.8308
1085,Sekh,Сех,Avar,,Avar,,TRUE,"Кунда (Куиада, Росо)","Куяда (Куиаль, Росо)",Сэх,Сех,2142,2142,197,289,42.416094,46.826447,Daghestan,Гунибский,1219.23010253906,,Гунибский,,
1087,Tlogob,Тлогоб,Avar,,Avar,,TRUE,,,Тлюгон,Тлогоб,,,140,216,42.4189,46.8153,Daghestan,Гунибский,1250.38891601563,,Гунибский,,
1089,,Уларуда,Avar,,,,,,,Уларуда,,,,30,,,,Daghestan,Гунибский,,,Гунибский,,
1091,Bol'shoy Urala,Большой Урала,Avar,,Avar,,TRUE,,,Урала,Большой Урала,,,250,173,42.424277,46.805844,Daghestan,Гунибский,1331.03063964844,,Гунибский,,
1093,,Усилиб,Avar,,,,,,,Усилиб,,,,30,,,,Daghestan,Гунибский,,,Гунибский,,
1095,,Хаман,Avar,,,,,,,Хаман,,,,32,,,,Daghestan,Гунибский,,,Гунибский,,
1097,Khamagib,Хамагиб,Avar,,Avar,,TRUE,,,Хамачи,Хамагиб,,,56,71,42.402538,46.850422,Daghestan,Гунибский,1363.85400390625,,Гунибский,,
1099,Khebdib,Хебдиб (Хебдит),Avar,,Avar,,TRUE,,,Хебза,Хебдиб,,,35,33,42.43,46.86,Daghestan,Гунибский,1215.87878417969,,Гунибский,,
1101,,Хелазда,Avar,,,,,,,Хелазда,,,,6,,,,Daghestan,Гунибский,,,Гунибский,,
1103,Khatsunob,Хацуноб,Avar,,Avar,,TRUE,,,Хоциниб,Хацуноб,,,81,62,42.425999,46.802058,Daghestan,Гунибский,1373.21691894531,,Гунибский,,
1105,,Хочо-Бакда,Avar,,,,,,,Хочо-Бакда,,,,59,,,,Daghestan,Гунибский,,,Гунибский,,
1107,Tsalada,Цалада,Avar,,Avar,,TRUE,,,Цалада,Цалада,,,126,203,42.42472,46.81472,Daghestan,Гунибский,1126.98999023438,,Гунибский,42.42472,46.81472
1109,,Цихиль-Куя,Avar,,,,,,,Цихиль-Куя,,,,4,,,,Daghestan,Гунибский,,,Гунибский,,
1111,,Чарах,Avar,,,,,,,Чарах,Чарах,,,297,0,,,Daghestan,Гунибский,,,Гунибский,42.41538,46.75678
1113,,Шахаразда,Avar,,,,,,,Шахаразда,,,,5,,,,Daghestan,Гунибский,,,Гунибский,,
1115,,Щубада,Avar,,,,,,,Шубада,Шубада,,,14,0,,,Daghestan,Гунибский,,,Гунибский,42.4,46.83333
1117,Enseruda,Энсеруда,Avar,,Avar,,TRUE,,,Энесорада,Энсеруда,,,18,37,42.40611,46.85278,Daghestan,Гунибский,1360.55480957031,,Гунибский,42.40611,46.85278
1119,Egeda,Эгеда,Avar,,Avar,,TRUE,,,Эчеда,Эгеда,,,33,59,42.409124,46.844276,Daghestan,Гунибский,1279.03149414062,,Гунибский,"42,409668° 46,843699°",
1121,,Маали,Avar,,,,,Маали,Маали,Маала,Маали,963,1000,948,2921,,,Daghestan,Гергебильский,,,Гергебильский,42.4858,46.9197
1123,,Урух Верхн.,Avar,,,,,,,Урух Верхн.,,,,8,,,,Daghestan,Гергебильский,,,Гергебильский,,
1125,,Урух Нижн.,Avar,,,,,,,Урух Нижн.,,,,8,,,,Daghestan,Гергебильский,,,Гергебильский,,
1127,Magar,Магар,Avar,,Avar,,TRUE,Магар,Магар,Магар,Магар,318,340,217,296,42.19546,46.843669,Daghestan,Чародинский,1493.29748535156,,Чародинский,42.19546,46.843669
1129,Baginub,Багинуб,Avar,,Avar,,TRUE,Багинуб (Багин),Баггинуб (Баггин),Багинуб,Багинуб,101,132,121,40,42.1743,46.88159,Daghestan,Чародинский,1917.81408691406,,Чародинский,,
1131,,мтф Кульзеб,Avar,,,,,Кульзеб,Кульзеб (Кульзал),Кулзеб,,266,274,223,,,,Daghestan,Чародинский,,,Чародинский,42.221,46.852
1133,Mukutl',Мукутль,Avar,,Avar,,TRUE,Мукутль,Мукутль,Мукутль,Мукутль,164,166,188,94,42.19562,46.861381,Daghestan,Чародинский,1776.84460449219,,Чародинский,42.19562,46.861381
1135,Sodab,Содаб,Avar,,Avar,,TRUE,Сода,Сода,Сода,Содаб,114,114,89,72,42.215081,46.81015,Daghestan,Чародинский,1771.49548339844,,Чародинский,42.215081,46.81015
1137,,Хецуб,Avar,,,,,Хецоб (Гецо),Хецоб (Хэц),Хецуб,,99,97,100,,,,Daghestan,Чародинский,,,Чародинский,42.195714,46.8689
1139,Khurukh,Хурух,Avar,,Avar,,TRUE,Херук,Хурухъ (Херхал),Хурух,Хурух,336,355,304,87,42.18441,46.85807,Daghestan,Чародинский,1774.28857421875,,Чародинский,42.18441,46.85807
1141,Tseneb,Ценеб,Avar,,Avar,,TRUE,Ценеб,Ценеб (Цанал),Ценеб,Ценеб,264,268,208,131,42.206684,46.842652,Daghestan,Чародинский,1687.95959472656,,Чародинский,42.206684,46.842652
1143,Chunib,Чуниб,Avar,,Avar,,TRUE,Чуниб (Чуна),Чуниб (Чанал),Чуниб,Чуниб,109,113,93,34,42.20496,46.82498,Daghestan,Чародинский,1906.23962402344,,Чародинский,42.20496,46.82498
1145,,разв.Шугинуб,Avar,,,,,Шугинуб (Шугину),Шугенуб (Шугал),Шугинуб,,127,123,120,,,,Daghestan,Чародинский,,,Чародинский,42.214,46.865
1147,Megeb,Мегеб,Dargwa,мегеб,Dargwa,,TRUE,Меге,"Меге (Могебъ, Мого, Могалъ)",Могоб,Мегеб,727,762,710,702,42.2528,47.0472,Daghestan,Гунибский,1712.15393066406,,Гунибский,42.2528,47.0472
1149,Moschob,Мощоб,Avar,,Avar,,TRUE,Машаб,"Мошоб (Машал, Мушоб)",Мошаб,Мощоб,139,155,175,24,42.21389,46.79167,Daghestan,Чародинский,2301.80810546875,,Чародинский,42.21389,46.79167
1151,Gidib,Гидиб,Avar,,Avar,,TRUE,Гидиб,Гидиб (Гадбал),Гедиб,Гидиб,139,145,316,61,42.22942,46.80621,Daghestan,Чародинский,1776.49340820313,,Чародинский,42.22942,46.80621
1153,Murada,Мурада,Avar,,Avar,,TRUE,Дарада-Мурада,Дарада-Мурада,Мурада,Мурада,1370,835,194,1558,42.445422,46.954469,Daghestan,Гергебильский,1229.65209960938,,Гергебильский,42.445422,46.954469
1155,,Горт,Avar,,,,,,,Горт,,,,116,,,,Daghestan,Гергебильский,,,Гергебильский,,
1157,,Колтуху,Avar,,,,,,,Колтуху,,,,125,,,,Daghestan,Гергебильский,,,Гергебильский,,
1159,Darada,Дарада,Avar,,Avar,,TRUE,,,Дарада,Дарада,,,216,217,42.465606,46.936573,Daghestan,Гергебильский,1513.75939941406,,Гергебильский,,
1161,,разв.Цолода,Avar,,,,,,,Цулда,,,,36,,,,Daghestan,Гергебильский,,,Гергебильский,"42,435458° 46,970853°",
1163,Obokh,Обох,Avar,,Avar,,TRUE,Эбох,Эбохъ,Обох,Обох,434,656,408,358,42.28362,47.03734,Daghestan,Гунибский,1765.45129394531,,Гунибский,42.28362,47.03734
1165,Ratlub,Ратлуб,Akhvakh,южно-ахвахский,Akhvakh,,TRUE,Ратлу,Ратлухъ (Ратлу),Ратлуб,Ратлуб,735,635,730,958,42.359268,46.433433,Daghestan,Шамильский,1581.42468261719,,Шамильский,42.359268,46.433433
1167,Dagbash,Дагбаш,Avar,,Avar,,TRUE,Ратлу-Ахвах (Ахуак),"Ахвах (Ахуакъ, Ратлу-Ахвакъ)",Ахвах,Дагбаш,426,415,441,264,42.380347,46.351961,Daghestan,Шамильский,2015.060546875,,Шамильский,"42,380361° 46,351962°",
1169,Ritlyab,Ритляб,Avar,,Avar,,TRUE,Ритлаб (Ритль),"Ритляб (Рятляб, Ритль)",Ритляб,Ритляб,426,431,419,94,42.05087,46.71917,Daghestan,Чародинский,2259.6943359375,,Чародинский,42.05087,46.71917
1171,Rugel'da,Ругельда,Avar,,Avar,,TRUE,Ругельда,"Ругельда (Ругильда, Русальта)",Ругельда,Ругельда,466,503,381,572,42.3175,46.5244,Daghestan,Шамильский,1635.89416503906,,Шамильский,42.3175,46.5244
1175,Urchukh,Урчух,Avar,,Avar,,TRUE,Урчух (Ерчок),"Урчухъ (Ерчокъ, Ерчахъ, Ерчехъ)",Орчох,Урчух,171,175,183,127,42.325548,46.495518,Daghestan,Шамильский,1627.00708007812,,Шамильский,,
1177,,Рукдах,Avar,,,,,Рукдах,Рукдахъ,Руктах,,98,105,85,,,,Daghestan,Шамильский,,,Шамильский,42.336215,46.4939
1179,Somoda,Сомода,Avar,,Avar,,TRUE,Самода (Сомода),"Сомода (Самода, Сумута)",Сомода,Сомода,300,210,264,459,42.30272,46.5368,Daghestan,Шамильский,1748.14819335938,,Шамильский,42.30272,46.5368
1181,,Хиндах,Avar,,,,,Хиндах,Келебъ,Хиндах,Хиндах,129,139,130,124,,,Daghestan,Шамильский,,Гунибский район,Шамильский,,
1181,,Хиндах,Avar,,,,,Хиндах,Келебъ,Хиндах,Хиндах,129,139,130,124,,,Daghestan,Шамильский,,Тляратинский район,Шамильский,,
1181,,Хиндах,Avar,,,,,Хиндах,Келебъ,Хиндах,Хиндах,129,139,130,124,,,Daghestan,Шамильский,,Хунзахский район,Шамильский,,
1181,,Хиндах,Avar,,,,,Хиндах,Келебъ,Хиндах,Хиндах,129,139,130,124,,,Daghestan,Шамильский,,Шамильский район,Шамильский,,
1183,,Хонох,Avar,,,,,Гонох,"Хонохъ (Гунухъ, Кунухъ)",Хонох,Хонох,215,226,242,117,,,Daghestan,Шамильский,,,Шамильский,42.317215,46.51048
1185,Rugudzha,Ругуджа,Avar,,Avar,,TRUE,Ругуджа (Ругжа),"Ругуджа (Ругджа, Руджа, Ругежъ)",Ругуджа,Ругуджа,2005,1823,1940,1637,42.3606,46.9139,Daghestan,Гунибский,1428.43090820313,,Гунибский,42.3606,46.9139
1187,Khopor,Хопор,Avar,,Avar,,TRUE,,,Хонор,Хопор,,,67,45,42.352716,46.937396,Daghestan,Гунибский,1279.96752929688,,Гунибский,,
1189,Unkida,Ункида,Avar,,Avar,,TRUE,,,Ункита,Ункида,,,57,432,42.328698,46.885731,Daghestan,Гунибский,1393.076171875,,Гунибский,,
1191,Salta,Салта,Avar,,Avar,,TRUE,Салта,"Салта (Салты, Сулулъ)",Салта,Салта,995,1123,909,684,42.39589,47.07048,Daghestan,Гунибский,1160.87109375,,Гунибский,42.39589,47.07048
1193,Sogratl',Согратль,Avar,,Avar,,TRUE,Согратль (Сугратль),"Сыратль (Сугратль, Сугулъ)",Согратль,Согратль,1929,1987,2000,2359,42.2808,46.9914,Daghestan,Гунибский,1542.60412597656,,Гунибский,42.2808,46.9914
1195,Nakazukh,Наказух,Avar,,Avar,,TRUE,,,Наказутль,Наказух,,,190,136,42.264594,46.914238,Daghestan,Гунибский,2003.31921386719,,Гунибский,42.264594,46.914238
1197,Sachada,Сачада,Avar,,Avar,,TRUE,Сачада,Сачада (Сечъ),Сачада,Сачада,309,249,354,145,42.258411,46.699595,Daghestan,Чародинский,1873.79113769531,,Чародинский,42.258411,46.699595
1199,Moksob,Моксоб,Avar,,Avar,,TRUE,Моксоб,Моксоб,Моксоб,,256,244,324,,43.434004,46.48603,Daghestan,Чародинский,25.188045501709,,Чародинский,42.268417,46.6936
1201,Sumeta,Сумета,Avar,,Avar,,TRUE,"Сумита, отселк.","Сумета (Сумита, Сумтал)",Сумета,Сумета,24,32,48,24,42.262025,46.705541,Daghestan,Чародинский,1711.93078613281,,Чародинский,42.262025,46.705541
1203,,разв.Сок,Avar,,,,,Сох,Сохъ,Чох,,171,139,162,,,,Daghestan,Чародинский,,,Чародинский,42.265,46.703
1205,Teletl',Телетль,Avar,,Avar,,TRUE,Тилитль,Тилитль,Телетль,Телетль,1686,1824,1650,3552,42.4289,46.7317,Daghestan,Шамильский,1416.23059082031,,Шамильский,42.4289,46.7317
1207,Mitliurib,Митлиуриб,Avar,,Avar,,TRUE,,,Митлигоро,Митлиуриб,,,438,687,42.43537,46.68836,Daghestan,Шамильский,1664.50366210938,,Шамильский,,
1209,Urada,Урада,Avar,,Avar,,TRUE,Урода (Ерода),"Урода (Орода, Ерода)",Урада,Урада,1338,1383,1117,2332,42.3822,46.5617,Daghestan,Шамильский,1423.95483398438,,Шамильский,42.3822,46.5617
1211,,Гетана Тлура,Avar,,,,,,,Гетана Тлура,,,,24,,,,Daghestan,Шамильский,,,Шамильский,,
1213,,Урадаколоб,Avar,,,,,,,Колоб,Урадаколоб,,,16,8,,,Daghestan,Шамильский,,,Шамильский,"42,389247° 46,538713°",
1215,,Мачада,Avar,,,,,Мачада,Мачада,Мочада,Мачада,551,515,503,429,,,Daghestan,Шамильский,,Гунибский район,Шамильский,42.37839,46.53725
1215,Machada,Мачада,Avar,,Avar,,TRUE,Мачада,Мачада,Мочада,Мачада,551,515,503,429,42.37839,46.53725,Daghestan,Шамильский,1676.37048339844,Шамильский район,Шамильский,42.37839,46.53725
1217,,Накитль,Avar,,,,,,,Накитль,Накитль,,,103,196,,,Daghestan,Шамильский,,,Шамильский,,
1219,Ravkvatl',Равкватль,Avar,,Avar,,TRUE,,,Ракитль,Равкватль,,,91,34,42.372455,46.579617,Daghestan,Шамильский,1838.04455566406,,Шамильский,,
1221,Tidib,Тидиб,Avar,,Avar,,TRUE,Тиди,"Тидибъ (Тиди, Тиды)",Тидиб,Тидиб,604,616,666,1089,42.3889,46.5742,Daghestan,Шамильский,1332.83996582031,,Шамильский,42.3889,46.5742
1223,Tlyakh,Тлях,Avar,,Avar,,TRUE,Тлах,Тляхъ (Тлахъ),Тлях,Тлях,221,229,170,318,42.389928,46.540021,Daghestan,Шамильский,1364.87878417969,,Шамильский,42.389928,46.540021
1225,Khotoda,Хотода,Avar,,Avar,,TRUE,Хотода (Гедота),Хотода (Гедота),Ходота,Хотода,386,395,348,924,42.39393,46.559446,Daghestan,Шамильский,1235.29577636719,,Шамильский,,
1227,Genta,Гента,Avar,,Avar,,TRUE,Гинта,Гинта (Хинда),Энта,Гента,547,521,559,583,42.37001,46.56099,Daghestan,Шамильский,1702.54846191406,,Шамильский,,
1229,Urib,Уриб,Avar,,Avar,,TRUE,Уриб (Ури),"Ури (Уриб, Рури)",Уриб,Уриб,616,635,702,587,42.4564,46.6736,Daghestan,Шамильский,1572.79919433594,,Шамильский,42.4564,46.6736
1231,Ziurib,Зиуриб,Avar,,Avar,,TRUE,Зиури,Зиури,Зиуриб,Зиуриб,226,239,232,326,42.41789,46.705088,Daghestan,Шамильский,1846.06469726563,,Шамильский,42.41789,46.705088
1233,Khvartikuni,Хвартикуни,Avar,,Avar,,TRUE,,Хвартикуни,Хвартикуни,Хвартикуни,,603,637,1322,42.4569,47.0067,Daghestan,Гергебильский,908.489624023438,,Гергебильский,,
1235,Tunzi,Тунзи,Avar,,Avar,,TRUE,,,Тунзиб,Тунзи,,,263,141,42.46888,46.97573,Daghestan,Гергебильский,1307.16528320313,,Гергебильский,42.46888,46.97573
1237,Khvarada,Хварада,Avar,,Avar,,TRUE,,,Хорода,Хварада,,,139,41,42.46889,46.99406,Daghestan,Гергебильский,1322.28137207031,,Гергебильский,"42,468937° 46,994866°",
1239,,Хиндах,Avar,,,,,Хиндах,Хиндахъ,Хиндах,Хиндах,624,531,509,1172,,,Daghestan,Гунибский,,Гунибский район,Гунибский,,
1239,,Хиндах,Avar,,,,,Хиндах,Хиндахъ,Хиндах,Хиндах,624,531,509,1172,,,Daghestan,Гунибский,,Тляратинский район,Гунибский,,
1239,,Хиндах,Avar,,,,,Хиндах,Хиндахъ,Хиндах,Хиндах,624,531,509,1172,,,Daghestan,Гунибский,,Хунзахский район,Гунибский,,
1239,,Хиндах,Avar,,,,,Хиндах,Хиндахъ,Хиндах,Хиндах,624,531,509,1172,,,Daghestan,Гунибский,,Шамильский район,Гунибский,,
1241,,Бурдали,Avar,,,,,,,Бурдали,,,,70,,,,Daghestan,Гунибский,,,Гунибский,,
1243,,Голони,Avar,,,,,,,Голони,,,,14,,,,Daghestan,Гунибский,,,Гунибский,,
1249,,Молчада,Avar,,,,,,,Молчада,,,,52,,,,Daghestan,Гунибский,,,Гунибский,,
1251,Khotoch,Хоточ,Avar,,Avar,,TRUE,Хоточ,Хоточъ (Хоточибъ),Хоточ,Хоточ,895,827,633,1173,42.408408,46.954024,Daghestan,Гунибский,1046.62158203125,,Гунибский,42.408408,46.954024
1253,,Асса-Хахитил,Avar,,,,,,,Асса-Хахитил,,,,4,,,,Daghestan,Гунибский,,,Гунибский,,
1255,,Зевер,Avar,,,,,,,Зевер,,,,184,,,,Daghestan,Гунибский,,,Гунибский,,
1257,,Колоб-Раал,Avar,,,,,,,Колоб-Раал,,,,13,,,,Daghestan,Гунибский,,,Гунибский,,
1259,,Коралух,Avar,,,,,,,Коралух,,,,2,,,,Daghestan,Гунибский,,,Гунибский,,
1261,,Хуцда-Кала,Avar,,,,,,,Хуцда-Кала,,,,6,,,,Daghestan,Гунибский,,,Гунибский,,
1263,Khuchada,Хучада,Avar,,Avar,,TRUE,Хучада (Хочада),Хучуда (Хочада),Хучада,Хучада,329,330,396,252,42.400235,46.469178,Daghestan,Шамильский,1805.74279785156,,Шамильский,42.400235,46.469178
1265,Tsulda,Цулда,Avar,,Avar,,TRUE,Цульда,Цульда,Цулда,Цулда,288,319,340,223,42.27357,46.72095,Daghestan,Чародинский,1902.81481933594,,Чародинский,42.27357,46.72095
1267,Gontlob,Гонтлоб,Avar,,Avar,,TRUE,Гонтлоб (Гонтло),Гонтлоб (Гонтло),Гонтлоб,Гонтлоб,64,66,59,33,42.280673,46.726468,Daghestan,Чародинский,1838.49987792969,,Чародинский,42.280673,46.726468
1269,Utlukh,Утлух,Avar,,Avar,,TRUE,Утлух (Утлех),Утлугъ (Атльхаль),Утлух,Утлух,93,97,110,88,42.267533,46.730055,Daghestan,Чародинский,1636.49890136719,,Чародинский,42.267533,46.730055
1271,Charoda,Чарода,Avar,,Avar,,TRUE,,,Чарада,Чарода,,,390,439,42.2764,46.8019,Daghestan,Чародинский,1523.63916015625,,Чародинский,42.2764,46.8019
1273,,Бунараб-Рохоб,Avar,,,,,,,Бунараб-Рохоб,,,,42,,,,Daghestan,Чародинский,,,Чародинский,,
1275,Mugurukh,Мугурух,Avar,,Avar,,TRUE,Мугурух (Мугурак),"Мугурух (Мугурукъ, Мугуракъ, Маграл)",Мугурух,Мугурух,287,291,274,317,42.26064,46.86533,Daghestan,Чародинский,1733.83569335938,,Чародинский,42.26064,46.86533
1277,Chokh,Чох,Avar,,Avar,,TRUE,Чох,Чохъ,Чох,Чох,1537,1497,1527,3222,42.3206,47.0336,Daghestan,Гунибский,1584.43029785156,,Гунибский,42.3206,47.0336
1279,Gamsutl',Гамсутль,Avar,,Avar,,TRUE,Гамсутль,Гамсутль (Гансутль),Гамсутль,Гамсутль,204,222,227,6,42.301972,46.996315,Daghestan,Гунибский,1646.52697753906,,Гунибский,42.301972,46.996315
1281,Shalib,Шалиб,Lak,,Lak,,TRUE,Шали (Хили),"Шали (Хили, Шалилю)",Шали,Шалиб,464,501,454,171,42.09007,46.91826,Daghestan,Чародинский,2267.57202148437,,Чародинский,42.09007,46.91826
1283,,Шулани,Avar,,,,,Шулани,Шуланы (Шулани),Шулани,Шулани,458,493,436,744,,,Daghestan,Гунибский,,,Гунибский,42.3067,46.9294
1285,Unty,Унты,Avar,,Avar,,TRUE,Унти,Унты (Унта),Унты,Унты,264,279,256,384,42.311452,46.944631,Daghestan,Гунибский,1420.8193359375,,Гунибский,42.311452,46.944631
1287,Akusha,Акуша,Dargwa,сев.,Dargwa,,TRUE,Акуша,Акуша,Акуши,Акуша,1988,2349,2512,4700,42.275664,47.340107,Daghestan,Акушинский,1391.779296875,,Акушинский,,
1287,Akusha,Акуша,Dargwa,сев.,Dargwa,,TRUE,Акуша,Панжук,Акуши,Акуша,1988,953,2512,4700,42.275664,47.340107,Daghestan,Акушинский,1391.779296875,,Акушинский,,
1289,,Убеки Махи,Dargwa,сев.,,,,,,Убеки Махи,,,,30,,,,Daghestan,Акушинский,,,Акушинский,,
1291,,Абидуны Махи,Dargwa,сев.,,,,,,Абидуны Махи,,,,86,,,,Daghestan,Акушинский,,,Акушинский,,
1293,Aynikabmakhi,Айникабмахи,Dargwa,сев.,Dargwa,,TRUE,Айникаб,Айникаб-Махи,Айни Каб,Айникабмахи,327,373,146,380,42.26679,47.36264,Daghestan,Акушинский,1481.97375488281,,Акушинский,,
1295,,Имхила Махи,Dargwa,сев.,,,,,,Имхила Махи,,,,33,,,,Daghestan,Акушинский,,,Акушинский,,
1297,Akhsakadamakhi,Ахсакадамахи,Dargwa,сев.,Dargwa,,TRUE,,,Ахса-Кады-Хунту,Ахсакадамахи,,,44,205,42.303416,47.381576,Daghestan,Акушинский,1374.48095703125,,Акушинский,,
1299,,Берги-Мак-Махи,Dargwa,сев.,,,,,,Берги-Мак-Махи,,,,225,,,,Daghestan,Акушинский,,,Акушинский,,
1301,,Бергеинзи,Dargwa,сев.,,,,,,Бер-Инзи-Махи,Бергеинзи,,,67,124,,,Daghestan,Акушинский,,,Акушинский,42.260462,47.352616
1303,,Бични-Махи,Dargwa,сев.,,,,,,Бични-Махи,,,,44,,,,Daghestan,Акушинский,,,Акушинский,,
1305,Burgimakmakhi,Бургимакмахи,Dargwa,сев.,Dargwa,,TRUE,Бурхимак,Бурхимакъ-Махи,Бурги-Ман-Махи,Бургимакмахи,144,185,63,1283,42.2897,47.3769,Daghestan,Акушинский,1333.25146484375,,Акушинский,,
1307,Burgimakhi,Бургимахи,Dargwa,сев.,Dargwa,,TRUE,,,Бурхи-Махи,Бургимахи,,,50,136,42.27489,47.28652,Daghestan,Акушинский,1512.24951171875,,Акушинский,42.27489,47.28652
1309,,Вайкот,Dargwa,сев.,,,,,,Вайкот,,,,48,,,,Daghestan,Акушинский,,,Акушинский,,
1311,,Ганжала-Кади Кунт,Dargwa,сев.,,,,,,Ганжала-Кади Кунт,,,,117,,,,Daghestan,Акушинский,,,Акушинский,,
1313,Ganderamakhi,Гандарамахи,Dargwa,сев.,Dargwa,,TRUE,,,Гандра-Махи,Гандарамахи,,,78,186,42.261093,47.333465,Daghestan,Акушинский,1464.74450683594,в Википедии и на картах Гандарамахи,Акушинский,42.261093,47.333465
1315,Gumramakhi,Гумрамахи,Dargwa,сев.,Dargwa,,TRUE,,,Гумра-Махи,Гумрамахи,,,151,642,42.25101,47.35105,Daghestan,Акушинский,1384.79638671875,,Акушинский,42.25101,47.35105
1317,,Гурдхи-Махи,Dargwa,сев.,,,,,,Гурдхи-Махи,,,,112,,,,Daghestan,Акушинский,,,Акушинский,,
1319,,Гури-Махи,Dargwa,сев.,,,,,,Гури-Махи,,,,51,,,,Daghestan,Акушинский,,,Акушинский,,
1321,,Джарон-Махи,Dargwa,сев.,,,,,,Джарон-Махи,,,,55,,,,Daghestan,Акушинский,,,Акушинский,,
1323,Dubrimakhi,Дубримахи,Dargwa,сев.,Dargwa,,TRUE,Дубри-Махи,Дубри-Махи,Дубри-Махи,Дубримахи,943,999,256,692,42.274418,47.285133,Daghestan,Акушинский,1503.74438476563,,Акушинский,42.274418,47.285133
1325,Inzimakhi,Инзимахи,Dargwa,сев.,Dargwa,,TRUE,,,Инзи-Махи,Инзимахи,,,145,1382,42.27238,47.35613,Daghestan,Акушинский,1409.185546875,,Акушинский,42.27238,47.35613
1327,Kavkamakhi,Кавкамахи,Dargwa,сев.,Dargwa,,TRUE,Кавка,Кавка-Махи (Верх. И Ниж),Кавка-Махи,Кавкамахи,489,523,426,1407,42.322184,47.30588,Daghestan,Акушинский,1676.33056640625,,Акушинский,42.322184,47.30588
1329,,Када-Кунт,Dargwa,сев.,,,,,,Када-Кунт,,,,58,,,,Daghestan,Акушинский,,,Акушинский,,
1331,,Какил Кунт,Dargwa,сев.,,,,,,Какил Кунт,,,,101,,,,Daghestan,Акушинский,,,Акушинский,,
1333,Kakmakhi,Какмахи,Dargwa,сев.,Dargwa,,TRUE,,,Как-Махи,Какмахи,,,62,612,42.29169,47.38541,Daghestan,Акушинский,1357.43872070313,,Акушинский,42.29169,47.38541
1335,,Калтай-Махи,Dargwa,сев.,,,,,,Калтай-Махи,,,,82,,,,Daghestan,Акушинский,,,Акушинский,,
1337,,Кергуз-Махи,Dargwa,сев.,,,,,,Кергуз-Махи,,,,39,,,,Daghestan,Акушинский,,,Акушинский,,
1339,Kertukmakhi,Кертукмахи,Dargwa,сев.,Dargwa,,TRUE,,,Кертух-Махи,Кертукмахи,,,94,662,42.28799,47.34305,Daghestan,Акушинский,1313.01879882813,,Акушинский,42.28799,47.34305
1341,,Кецли-Махи,Dargwa,сев.,,,,,,Кецли-Махи,,,,32,,,,Daghestan,Акушинский,,,Акушинский,,
1343,Kamkadamakhi,Камкадамахи,Dargwa,сев.,Dargwa,,TRUE,,,Ком-Гада-Кунд,Камкадамахи,,,114,288,42.255826,47.308527,Daghestan,Акушинский,1643.22509765625,,Акушинский,,
1345,,Кубин-Махи,Dargwa,сев.,,,,,,Кубин-Махи,,,,17,,,,Daghestan,Акушинский,,,Акушинский,,
1347,,Кури-Махи В.,Dargwa,сев.,,,,Курья,М. Курии-Махи,Кури-Махи В.,,194,116,71,,,,Daghestan,Акушинский,,,Акушинский,,
1349,Kurimakhi,Куримахи,Dargwa,сев.,Dargwa,,TRUE,Курни-Махи,Б. Курии-Махи,Кури-Махи Н.,Куримахи,92,209,423,1146,42.304306,47.304694,Daghestan,Акушинский,1253.79919433594,,Акушинский,42.304306,47.304694
1351,,Пунгри-Махи,Dargwa,сев.,,,,,,Пунгри-Махи,,,,31,,,,Daghestan,Акушинский,,,Акушинский,,
1353,Semgamakhi,Семгамахи,Dargwa,сев.,Dargwa,,TRUE,,,Сейга-Махи,Семгамахи,,,188,667,42.28438,47.35484,Daghestan,Акушинский,1409.71228027344,,Акушинский,,
1355,,Верхний Кавкамахи,Dargwa,сев.,,,,Тумка-Кабка,Тумкакавк-Махи,Тумка-Кавка,Верхний Кавкамахи,749,105,86,452,,,Daghestan,Акушинский,,,Акушинский,,
1357,,Турлуни,Dargwa,сев.,,,,,,Турлуни,,,,83,,,,Daghestan,Акушинский,,,Акушинский,,
1359,Uznimakhi,Узнимахи,Dargwa,сев.,Dargwa,,TRUE,Узни-Махи,Узна-Махи,Узни-Махи,Узнимахи,208,229,91,910,42.30003,47.3858,Daghestan,Акушинский,1374.56896972656,,Акушинский,42.30003,47.3858
1361,Urgubamakhi,Ургубамахи,Dargwa,сев.,Dargwa,,TRUE,Панисла-Уркубала,,Ургуба-Махи,Ургубамахи,1045,,243,1071,42.28968,47.31783,Daghestan,Акушинский,1328.82092285156,,Акушинский,42.28968,47.31783
1363,Urkhuchimakhi,Урхучимахи,Dargwa,сев.,Dargwa,,TRUE,Уркучи-Махи,Урхучи-Махи,Урхучи-Махи,Урхучимахи,285,211,392,2290,42.310271,47.260222,Daghestan,Акушинский,1249.84936523438,,Акушинский,42.310271,47.260222
1365,Tserkhimakhi,Церхимахи,Dargwa,сев.,Dargwa,,TRUE,,,Церги-Махи,Церхимахи,,,34,494,42.276694,47.336755,Daghestan,Акушинский,1391.78820800781,,Акушинский,42.276694,47.336755
1367,Tsundimakhi,Цундимахи,Dargwa,сев.,Dargwa,,TRUE,,,Цунди-Махи,Цундимахи,,,139,360,42.25164,47.31668,Daghestan,Акушинский,1641.20202636719,,Акушинский,42.25164,47.31668
1369,Tsunimakhi,Цунимахи,Dargwa,сев.,Dargwa,,TRUE,Цуни-Махи,Цуни-Махи,Цуни-Махи,Цунимахи,194,200,225,484,42.29835,47.26194,Daghestan,Акушинский,1373.09594726563,,Акушинский,42.29835,47.26194
1371,Chankalamakhi,Чанкаламахи,Dargwa,сев.,Dargwa,,TRUE,,,Чанкала-Ашга-Махи,Чанкаламахи,,,135,111,42.27788,47.365804,Daghestan,Акушинский,1416.48681640625,,Акушинский,42.27788,47.365804
1373,Chinimakhi,Чинимахи,Dargwa,сев.,Dargwa,,TRUE,Чиини-Махи,Чиина Махи,Чини-Махи В.,Чинимахи,376,300,206,915,42.27565,47.37455,Daghestan,Акушинский,1339.99279785156,,Акушинский,42.27565,47.37455
1375,,Чини-Махи Н.,Dargwa,сев.,,,,,,Чини-Махи Н.,,,,62,,,,Daghestan,Акушинский,,,Акушинский,,
1377,Shinkbalakada,Шинкбалакада,Dargwa,сев.,Dargwa,,TRUE,,,Шинковал Кала,Шинкбалакада,,,164,18,42.261375,47.300242,Daghestan,Акушинский,1600.23425292969,,Акушинский,,
1379,Shumkhrimakhi,Шумхримахи,Dargwa,сев.,Dargwa,,TRUE,,,Шунхри-Махи,Шумхримахи,,,120,172,42.291042,47.268562,Daghestan,Акушинский,1419.60729980469,,Акушинский,42.291042,47.268562
1381,,Эбдала-Баганд-Кала-Махи,Dargwa,сев.,,,,,,Эбдала-Баганд-Кала-Махи,,,,83,,,,Daghestan,Акушинский,,,Акушинский,,
1383,,Янцарамахи,Dargwa,сев.,,,,,,Янцара-Махи,,,,77,,,,Daghestan,Акушинский,,,Акушинский,"42,281725° 47,360629°",
1385,Alikhanmakhi,Алиханмахи,Dargwa,цуд.,Dargwa,,TRUE,Али-Хан-Махи,Алихан-Махи,Алихан-Махи,Алиханмахи,405,395,340,831,42.33194,47.26602,Daghestan,Акушинский,1555.15637207031,,Акушинский,,
1387,Verkhnie Kamkamakhi,Верхний Камкамахи,Dargwa,цуд.,Dargwa,,TRUE,,,Камга-Махи,Верхний Камкамахи,,,15,75,42.32265,47.23945,Daghestan,Акушинский,1334.09692382813,"в Википедии Верхний, на картах Верхние",Акушинский,,
1389,Ameterkmakhi,Аметеркмахи,Dargwa,цуд.,Dargwa,,TRUE,Аметерк-Махи,"Аматерк-Махи (Амед-Терк-Махи, Улхулахар)",Аметерк-Махи,Аметеркмахи,725,721,441,2139,42.33081,47.213539,Daghestan,Акушинский,1137.05822753906,,Акушинский,,
1391,,Айнего-Махи,Dargwa,цуд.,,,,,,Айнего-Махи,,,,22,,,,Daghestan,Акушинский,,,Акушинский,,
1393,,Камха-Махи В.,Dargwa,цуд.,,,,,Верх.-Камха-Махи,Камха-Махи В.,,,61,47,,,,Daghestan,Акушинский,,,Акушинский,,
1395,,Нижнее Камкамахи,Dargwa,цуд.,,,,,Нижн. Камха Махи,Камха-Махи Н.,,,159,197,,,,Daghestan,Акушинский,,,Акушинский,"42,326236° 47,227855°",
1397,,Куркабе-Махи,Dargwa,цуд.,,,,,,Куркабе-Махи,,,,74,,,,Daghestan,Акушинский,,,Акушинский,,
1399,,Унака-Махи,Dargwa,цуд.,,,,,,Унака-Махи,,,,25,,,,Daghestan,Акушинский,,,Акушинский,,
1401,Balkhar,Балхар,Lak,,Lak,,TRUE,Балхар,Балхар (Баркарлю),Балхар,Балхар,1424,1437,1195,941,42.2797,47.2314,Daghestan,Акушинский,1658.48388671875,,Акушинский,,
1403,,Кули,Lak,,,,,Кхоли,Кхоли,Коли,Кули,411,405,360,157,,,Daghestan,Акушинский,,Акушинский район,Акушинский,,
1403,Kuli,Кули,Lak,,Lak,,TRUE,Кхоли,Кхоли,Коли,Кули,411,405,360,157,42.0227595,47.2387802,Daghestan,Акушинский,1955.77087402344,Кулинский район,Акушинский,,
1405,Tsulikana,Цуликана,Lak,,Lak,,TRUE,Цулекуно (Цулкун),"Цуликан (Цулекуни, Цуликун)",Цуликани,Цуликана,389,374,272,264,42.25834,47.25676,Daghestan,Акушинский,1746.52551269531,,Акушинский,,
1407,Burdeki,Бурдеки,Dargwa,сев.,Dargwa,,TRUE,Бурдеки,"Бурдеки (Бурдаки, Вердюк, Мурдук)",Бурдек,Бурдеки,339,335,399,652,42.3047,47.6703,Daghestan,Сергокалинский,747.930297851562,,Сергокалинский,42.3047,47.6703
1409,Butri,Бутри,Dargwa,усиша-бутринский,Dargwa,,TRUE,Бутри,Бутри,Бутри,Бутри,1294,1205,1097,1098,42.07426,47.44048,Daghestan,Акушинский,1560.35900878906,,Акушинский,,
1411,Vikri,Викри,Dargwa,муиринский,Dargwa,,TRUE,Выхри,"Выхри (Викра, Икри)",Викри,Викри,925,909,834,22,42.20612,47.679702,Daghestan,Каякентский,1226.16125488281,,Каякентский,42.20612,47.679702
1413,,Ахмед-Махи,Dargwa,муиринский,,,,,,Ахмед-Махи,,,,6,,,,Daghestan,Дахадаевский,,,Дахадаевский,,
1415,Shadni,Шадни,Lak,,Lak,,TRUE,Шадни,Шабни,Шадни,Шадни,159,158,97,297,42.192172,47.648927,Daghestan,Дахадаевский,1349.83508300781,,Дахадаевский,,
1417,Gapshima,Гапшима,Dargwa,гапш.,Dargwa,,TRUE,Гапшима,Гапшима,Гапшима,Гапшима,741,727,656,1706,42.2122,47.3261,Daghestan,Акушинский,1603.01037597656,,Акушинский,42.2122,47.3261
1419,,Мегва,Dargwa,гапш.,,,,Мегва (Меге),Мегва,Мегви,,432,403,324,,,,Daghestan,Акушинский,,,Акушинский,"42,214536° 47,324830°",
1421,,ур. Герга,Dargwa,сев.,,,,Герга,Герга (Гирка),Герга,,705,711,922,,,,Daghestan,Сергокалинский,,,Сергокалинский,"42,290201° 47,564341°",
1423,,Герхмахи,Dargwa,сев.,,,,Гарх-Махи,Гарх-Махи (Герх-Махи),Герх-Махи,Герхмахи,584,600,611,2084,,,Daghestan,Акушинский,,,Акушинский,42.2634,47.52765
1425,Geba,Геба,Dargwa,усиша-бутринский,Dargwa,,TRUE,"Гиба (Шиба, Шевкли)",Гиба (Шиба),Гиба,Геба,573,540,536,737,42.21527,47.39266,Daghestan,Акушинский,1633.94787597656,,Акушинский,42.21527,47.39266
1427,Gindib,Гинта,Dargwa,усиша-бутринский,Avar,,FALSE,Гинта (Хунтали),"Гинта (Хинта, Хунтали)",Гинта,Гинта,1233,1208,1073,1535,42.11296,46.50397,Daghestan,Акушинский,2013.51049804687,,Акушинский,,
1427,Ginta,Гинта,Dargwa,усиша-бутринский,Dargwa,,TRUE,Гинта (Хунтали),"Гинта (Хинта, Хунтали)",Гинта,Гинта,1233,1208,1073,1535,42.2042,47.4186,Daghestan,Акушинский,1588.97143554688,,Акушинский,,
1429,,Куркимахи,Dargwa,усиша-бутринский,,,,Гурки,Гурки (Хурки),Курки,Куркимахи,343,347,330,395,,,Daghestan,Акушинский,,Акушинский район,Акушинский,,
1429,,Куркимахи,Dargwa,усиша-бутринский,,,,Гурки,Гурки (Хурки),Курки,Куркимахи,343,347,330,395,,,Daghestan,Акушинский,,Дахадаевский район,Акушинский,,
1431,Guladtymakhi,Гуладтымахи,Dargwa,цуд.,Dargwa,,TRUE,Гулаты-Махи,Гуладты-Махи (Го-Махи),Гулатды-Махи,Гуладтымахи,507,491,472,417,42.34823,47.23927,Daghestan,Акушинский,1542.89306640625,,Акушинский,42.34823,47.23927
1433,,Арга-Буршна,Dargwa,цуд.,,,,,,Арга-Буршна,,,,17,,,,Daghestan,Акушинский,,,Акушинский,,
1435,Guladty,Гуладты,Dargwa,сирхинско-тантынский,Dargwa,,TRUE,Голедты,Голадты,Гуладты,Гуладты,726,699,638,663,42.11523,47.45074,Daghestan,Дахадаевский,1505.74609375,,Дахадаевский,42.11523,47.45074
1437,Mirzita,Мирзита,Dargwa,сирхинско-тантынский,Dargwa,,TRUE,Мирзадти,Мирзадты,Мирзидта,Мирзита,209,207,162,372,42.1309,47.47663,Daghestan,Дахадаевский,1572.99951171875,,Дахадаевский,42.1309,47.47663
1439,,Дегва,Dargwa,сев.,,,,Дегва (Дигва),Дегва (Дигва),Дегва,Дегва,411,132,540,821,,,Daghestan,Сергокалинский,,,Сергокалинский,42.4161,47.5372
1441,Deybuk,Дейбук,Dargwa,муиринский,Dargwa,,TRUE,Дийбук (Дубук),"Дийбукъ (Дибукъ, Дубукъ)",Дейбук,Дейбук,931,980,991,434,42.20532,47.51996,Daghestan,Каякентский,1538.88464355469,,Каякентский,42.20532,47.51996
1443,,МТФ Чадыкмахи,Dargwa,муиринский,,,,"Чадик, отселок",Чидик (Чидык-Махи),Чадик-Махи,,138,118,96,,,,Daghestan,Дахадаевский,,,Дахадаевский,"42,224299° 47,535131°",
