koryakov_bd_id,eng_vil_name,rus_vil_name,rus_vil_name_mdg,censuses.1885.people,censuses.1895.people,censuses.1926.people,censuses.2010.people,Lat,Lon,Language,Lect,Republic,Region,elevation
1,,Махачкала,Махачкала,,,32000,570845,,,,,,,
3,,Петровск-Кавказский,Петровск-Кавказский,,,1552,,,,,,,,
5,,Дербент,Дербент,,,23097,118599,,,,,,,
7,,Дагестанские Огни,Дагестанские Огни,,,1048,,,,,,,,
9,,Буйнакск,Буйнакск,,,10923,58625,,,,,,,
15,Amishta,Амишта,Амишта,122,141,135,129,42.62967,46.552971,Avar,,Daghestan,,1484.29
17,Dzhalaturi,Джалатури,Джалатури,169,190,160,82,42.631847,46.567028,Avar,,Daghestan,,1732.36
19,Tsalkita,Цалкита,Цалкита,102,97,104,108,42.61798,46.57339,Avar,,Daghestan,,1598.41
21,Amushi Bol'shoe,Амущи Большое,Амущи Большое,581,550,551,1510,42.63752,46.4864,Avar,,Daghestan,,1033.43
23,Amushi Maloe,Амущи Малое,Амущи Малое,159,137,187,126,42.650445,46.487815,Avar,,Daghestan,,825.46
25,Andykh,Андых,Андых,557,595,602,971,42.5119,46.5939,Avar,,Daghestan,,1528.25
27,Arakani,Аракани,Аракани,1050,1190,882,1638,42.610078,46.991711,Avar,,Daghestan,,858.09
29,,Казакин-Бак,Казакин-Бак,,,27,,,,,,,,
31,,Керекуб-Бак,Керекуб-Бак,,,66,,,,,,,,
33,Urchiab,Урчиаб,Урчиаб,,,75,,42.657739,47.016338,Avar,,Daghestan,,1262.67
35,Akhalchi,Ахалчи,Ахалчи,894,843,502,734,42.594957,46.631744,Avar,,Daghestan,,1839.25
37,,Коло,Коло,,,63,,,,,,,,
39,Verkhnie Akhalchi,Верхние Ахалчи,Верхние Ахалчи,,,139,,42.59911,46.63581,Avar,,Daghestan,,1862.81
41,Tumagari,Тумагари,Тумагари,,,104,79,42.58165,46.60662,Avar,,Daghestan,,1861.95
43,,Химаколо,Химакоро,,,45,,,,,,,,
45,Ashil'ta,Ашильта,Ашильта,443,478,586,1982,42.772446,46.728853,Avar,,Daghestan,,640.28
47,Baitl',Баитль,Баитль,165,176,144,202,42.546452,46.676472,Avar,,Daghestan,,1783.92
49,Chondotl',Чондотль,Чондотль,185,199,202,151,42.547749,46.659112,Avar,,Daghestan,,1907.66
51,Batlaich,Батлаич,Батлаич,772,788,770,1083,42.554821,46.754217,Avar,,Daghestan,,1764.74
53,Balakhani,Балахани,Балахани,898,904,1000,2166,42.63128,46.89514,Avar,,Daghestan,,889.52
55,Zirani,Зирани,Зирани,154,160,188,65,42.61797,46.94436,Avar,,Daghestan,,543.17
57,Shulatuta,Шулатута,Шулатута,56,64,89,,42.63167,46.85806,Avar,,Daghestan,,1565.41
59,Verkhniy Batlukh,Верхний Батлух,Верхний Батлух,234,239,268,455,42.496276,46.502217,Avar,,Daghestan,,1591.95
61,Nizhniy Batlukh,Нижний Батлух,Нижний Батлух,469,571,577,1332,42.4853,46.5239,Avar,,Daghestan,,1455
63,Betli,Бетли,Бетли,311,335,283,18,42.72372,46.73388,Avar,,Daghestan,,1770.97
65,Kakhabroso,Кахабросо,Кахабросо,345,341,311,796,42.73896,46.704697,Avar,,Daghestan,,1752.86
67,Butsra,Буцра,Буцра,682,675,614,1429,42.58902,46.7677,Avar,,Daghestan,,1599.21
69,,разв. Шагада,разв. Шагада,263,279,185,,,,,,,,
71,,Шого,Шого,,,52,,,,,,,,
73,Gatsalukh,Гацалух,Гацалух,340,364,363,473,42.59298,46.64949,Avar,,Daghestan,,1871.66
75,,Гимры,Гимры,1130,1125,1156,4651,,,,,,,
77,Genichutl',Геничутль,Геничутль,426,457,261,315,42.56455,46.73959,Avar,,Daghestan,,1772.45
79,,Итля,Итля,138,153,115,,,,,,,,
81,Golotl',Голотль,Голотль,714,735,700,1493,42.485962,46.735698,Avar,,Daghestan,,803.01
83,Gonokh,Гонох,Гонох,174,172,196,373,42.56163,46.6896,Avar,,Daghestan,,1709.27
85,Tsada,Цада,Цада,173,189,185,190,42.56694,46.7125,Avar,,Daghestan,,1715.99
87,Gortkolo,Гортколо,Гортколо,270,272,231,241,42.576655,46.63945,Avar,,Daghestan,,1791.61
89,,Ассаколо,Ассаколо,,,27,,,,,,,,
91,Gozolokolo,Гозолоколо,Гозолоколо,153,146,167,162,42.569651,46.61206,Avar,,Daghestan,,1935.95
93,Gotsatl' Bol'shoy,Гоцатль Большой,Гоцатль Большой,1028,1089,935,2189,42.51862,46.88262,Avar,,Daghestan,,933.89
95,Gotsatl' Malyy,Гоцатль Малый,Гоцатль Малый,,,224,581,42.5041,46.88829,Avar,,Daghestan,,863.85
97,Chalda,Чалда,Чалда,,,103,302,42.538206,46.920351,Avar,,Daghestan,,646.71
99,Igali,Игали,Игали,1138,1135,856,2558,42.7181,46.5811,Avar,,Daghestan,,623.3
101,Kunzakh,Кунзах,Кунзах,,,126,362,42.74884,46.66488,Avar,,Daghestan,,963.19
103,,Тланхлоры,Тланхлоры,,,125,,,,,,,,
105,Tsanatl',Цанатль,Цанатль,,,83,389,42.72244,46.62252,Avar,,Daghestan,,932.02
107,Irganay,Ирганай,Ирганай,596,613,699,2290,42.649543,46.912048,Avar,,Daghestan,,577.02
109,Kakhikal,Кахикал,Кахикал,105,124,116,339,42.499065,46.874809,Avar,,Daghestan,,1035.97
111,Tagada,Тагада,Тагада,156,160,185,498,42.497573,46.868389,Avar,,Daghestan,,1161.55
113,Uzdalroso,Уздалросо,Уздалросо,161,184,232,872,42.48612,46.85577,Avar,,Daghestan,,1176.56
115,Kakh,Ках,Ках,212,221,211,276,42.557664,46.790848,Avar,,Daghestan,,1523.94
117,Kuanib,Куаниб,Куаниб,287,292,320,454,42.509735,46.611385,Avar,,Daghestan,,1549.83
119,Kudutl',Кудутль,Кудутль,677,668,524,541,42.5783,47.0194,Avar,,Daghestan,,939.05
121,,Могох,Могох,602,622,530,274,,,,,,,
123,Gotsob,Гоцоб,Гоцоб,168,160,159,164,42.58963,46.86901,Avar,,Daghestan,,1867.5
125,,Кура-Курух,Кура-Курух,,,27,,,,,,,,
127,Moksokh,Моксох,Моксох,309,309,241,220,42.6538,46.80572,Avar,,Daghestan,,1734.06
129,,Могох,Могох,226,243,272,363,,,,,,,
131,Zanata,Заната,Заната,200,202,159,198,42.485146,46.552771,Avar,,Daghestan,,1602.92
133,Mochokh,Мочох,Мочох,420,418,372,399,42.63159,46.61242,Avar,,Daghestan,,1638.51
135,Muschuli,Мушули,Мушули,300,294,331,571,42.633706,46.498593,Avar,,Daghestan,,1024.62
137,Nitab,Нитаб,Нитаб,161,164,147,235,42.51925,46.63256,Avar,,Daghestan,,1412.81
139,Datuna,Датуна,Датуна,67,80,75,179,42.47357,46.64364,Avar,,Daghestan,,856.76
141,,Накитль,Накитль,118,130,149,162,,,,,,,
143,Oboda,Обода,Обода,747,734,701,664,42.578542,46.668203,Avar,,Daghestan,,1742.22
145,Orota,Орота,Орота,638,632,669,1679,42.65915,46.53772,Avar,,Daghestan,,1150.51
147,Ochlo,Очло,Очло,226,221,205,572,42.642518,46.64532,Avar,,Daghestan,,1809.27
149,,Тадколо,Тадколо,99,96,94,,,,,,,,
151,Siukh,Сиух,Сиух,763,772,661,278,42.5999,46.54462,Karata,,Daghestan,,1907.66
153,Tanusi,Тануси,Тануси,569,589,511,512,42.58233,46.69233,Avar,,Daghestan,,1938.77
155,Ebuta,Эбута,Эбута,97,108,130,170,42.59275,46.66626,Avar,,Daghestan,,1941.4
157,Tlaylukh,Тлайлух,Тлайлух,163,111,209,375,42.6208,46.52428,Avar,,Daghestan,,1120.2
159,,Карачитль,Карачитль,,,5,,,,,,,,
161,Tekita,Тукита,Текита,111,111,127,165,42.630886,46.521832,Avar,,Daghestan,,1039.27
163,Tsel'mes,Цельмес,Цельмес,229,260,251,378,42.623464,46.538549,Avar,,Daghestan,,1164.96
165,Untsukul',Унцукуль,Унцукуль,2228,2089,2315,6276,42.7131,46.7875,Avar,,Daghestan,,867.3
167,Orkachi,Оркачи,Оркачи,298,298,319,401,42.6058,46.81797,Avar,,Daghestan,,1837.66
169,Verkhniy Aradirikh,Верхний Арадирих,Верхний Арадирих,276,260,267,495,42.67099,46.60372,Avar,,Daghestan,,1882.21
171,Nizhniy Aradirikh,Нижний Арадирих,Нижний Арадирих,156,148,161,309,42.68979,46.568219,Avar,,Daghestan,,1751.46
173,Sredniy Aradirikh,Средний Арадирих,Средний Арадирих,234,235,287,579,42.68121,46.58022,Avar,,Daghestan,,1828.71
175,Kharakhi,Харахи,Харахи,657,699,735,1199,42.6433,46.5211,Avar,,Daghestan,,1162.1
177,Kharachi,Харачи,Харачи,358,382,380,450,42.67744,46.82263,Avar,,Daghestan,,1241.1
179,Kharikolo,Хариколо,Хариколо,306,330,410,342,42.5451,46.80847,Avar,,Daghestan,,1538.46
181,,Куди Магом.,Куди Магом.,,,8,,,,,,,,
183,,Хундари Мархо,Хундари Мархо,,,16,,,,,,,,
185,,Чалучикан,Чалучикан,,,12,,,,,,,,
187,Khimakoro,Химакоро,Химакоро,183,196,161,66,42.590092,46.617523,Avar,,Daghestan,,1803.11
189,,Хиндах,Хиндах,264,1364,266,562,,,,,,,
191,Kolo,Коло,Коло,217,191,214,538,42.65769,46.56607,Avar,,Daghestan,,1000.59
193,Khunzakh,Хунзах,Хунзах,1741,1768,1810,4246,42.5394,46.705,Avar,,Daghestan,,1641.54
195,,Амитль,Амитль,,,71,,,,,,,,
197,,Бакда,Бакда,,,37,,,,,,,,
199,Zaib,Заиб,Заиб,,,56,226,42.489364,46.707472,Avar,,Daghestan,,799.37
201,,Колони,Колони,,,16,,,,,,,,
203,Khini,Хини,Хини,,,245,250,42.52767,46.70496,Avar,,Daghestan,,1308.35
205,Tsatanikh,Цатаних,Цатаних,635,603,431,863,42.667793,46.723937,Avar,,Daghestan,,1779.18
207,,Колоб,Колоб,281,286,249,242,,,,,,,
209,Inkvalita,Инквалита,Инквалита,173,176,135,46,42.69936,46.68833,Avar,,Daghestan,,1519.2
211,Ishtiburi,Иштибури,Иштибури,194,192,196,292,42.679149,46.702701,Avar,,Daghestan,,1649.23
213,Shotota,Шотода,Шотода,229,231,250,360,42.58165,46.57729,Avar,,Daghestan,,1925.6
215,Agvali,Агвали,Агвали,181,183,213,2453,42.541192,46.121798,Chamalal,,Daghestan,,962.58
217,Aknada,Акнада,Акнада,502,503,519,120,42.4024828,46.1693204,Tindi,,Daghestan,,1756.12
217,,Акнада,Акнада,502,503,519,120,,,,,,,
219,Alak,Алак,Алак,665,654,779,2759,42.6092,46.1972,Avar,,Daghestan,,1810.92
221,Angida,Ангида,Ангида,471,426,517,7,42.43279,46.1924,Tindi,,Daghestan,,1881.75
223,Asha,Аща,Аща,187,190,261,,42.450373,46.3334458,Tindi,,Daghestan,,3161.02
225,,Анды,Анды,2787,1703,2281,,,,,,,,
227,,Азалала,Азалала,,,6,,,,,,,,
229,,Ачилу,Ачилу,,,16,,,,,,,,
231,Ashali,Ашали,Ашали,263,286,138,788,42.76963,46.30878,Andi,,Daghestan,,1573.82
233,,Белилетль,Белилетль,,,8,,,,,,,,
235,,Гана,Гана,,,27,,,,,,,,
237,,Лагу,Лагу,,,15,,,,,,,,
239,,Рукотль,Рукотль,,,16,,,,,,,,
241,,Хичиха,Хичиха,,,25,,,,,,,,
243,,Хунтеро,Хунтеро,,,4,,,,,,,,
245,Tsibilta,Цибильта,Цибильта,,,90,47,42.74322,46.24311,Andi,,Daghestan,,1962.24
247,,Цумаль,Цумаль,,,3,,,,,,,,
249,Ansalta,Ансалта,Ансалта,1265,1381,1373,4598,42.6939,46.1147,Avar,,Daghestan,,1103.71
251,Rakhata,Рахата,Рахата,,,373,2911,42.6911,46.1414,Avar,,Daghestan,,1017.46
253,Anchik (Anchikh),Анчик,Анчик,571,664,813,817,42.608098,46.271717,Karata,,Daghestan,,1196.12
255,Tsumali,Цумали,Цумали,,,43,195,42.607619,46.260923,Avar,,Daghestan,,1396.16
257,Argvani,Аргвани,Аргвани,914,958,974,797,42.8128,46.5792,Avar,,Daghestan,,1593.82
259,Archo,Арчо,Арчо,326,299,406,346,42.597691,46.305756,Karata,,Daghestan,,1524.14
261,Assab,Ассаб,Ассаб,946,979,835,1640,42.471596,46.492475,Avar,,Daghestan,,1596.57
263,Botlikh,Ботлих,Ботлих,1105,1041,1253,10787,42.667813,46.221451,Botlikh,,Daghestan,,963.76
265,,Аманы,Аманы,,,41,,,,,,,,
267,Gagatli,Гагатли,Гагатли,1360,1500,1981,3543,42.800361,46.292645,Andi,,Daghestan,,1713.54
269,,Бичила,Бичила,,,20,,,,,,,,
271,Gunkha,Гунха,Гунха,198,214,242,129,42.78968,46.28275,Andi,,Daghestan,,1586.26
273,Zilo,Зило,Зило,569,469,510,1220,42.731394,46.319223,Andi,,Daghestan,,1202.37
275,Gadari,Гадари,Гадари,359,355,306,254,42.807303,46.621237,Avar,,Daghestan,,1272.23
277,Gadiri,Гадири,Гадири,481,547,522,418,42.566265,46.065746,Chamalal,,Daghestan,,1965.58
279,Gachitli,Гачитли,Гачитли,121,117,75,128,42.551361,46.088803,Chamalal,,Daghestan,,1763.31
281,,Идходатль,Идходатль,,,13,,,,,,,,
283,,Цатини,Цатини,,,14,,,,,,,,
285,Verkhnie Gakvari,Верхнее Гаквари,Верхнее Гаквари,,,191,383,42.547874,46.032686,Chamalal,,Daghestan,,1917.33
287,Agvali,Агвали,Агвали,,,72,,42.541192,46.121798,Chamalal,,Daghestan,,962.58
289,,Асали,Асали,,,24,,,,,,,,
291,,Бекахатль,Бекахатль,,,26,,,,,,,,
293,,Бицида,Бицида,,,58,,,,,,,,
295,Gigikh,Гигих,Гигих,,,5,103,42.532529,46.101767,Chamalal,,Daghestan,,1316.26
297,,Исибки,Исибки,,,10,,,,,,,,
299,,Эгдада,Эгдада,,,95,202,,,,,,,
301,,Кабилач,Кабилач,,,8,,,,,,,,
303,,Кирижбай,Кирижбай,,,35,,,,,,,,
305,,Коляда,Коляда,,,12,,,,,,,,
307,,Мачбал,Мачбал,,,42,,,,,,,,
309,,Мухгада,Мухгада,,,12,,,,,,,,
311,Nizhnie Gakvari,Нижние Гаквари,Нижние Гаквари,1179,1303,396,497,42.53602,46.05171,Chamalal,,Daghestan,,1625.31
313,Richaganikh,Ричаганих,Ричаганих,277,324,172,175,42.49724,46.05853,Chamalal,,Daghestan,,1780.74
315,,Сусла,Сусла,,,6,,,,,,,,
317,,Хаутли,Хаутли,,,20,,,,,,,,
319,,Хинч,Хинч,,,131,,,,,,,,
321,,Хувалач,Хувалач,,,22,,,,,,,,
323,Tsidatl',Цидатль,Цидатль,,,93,143,42.51855,46.05795,Chamalal,,Daghestan,,1630.28
325,Tsuydi,Цуйди/Цунди,Цуйди/Цунди,,,72,30,42.52334,46.07182,Chamalal,,Daghestan,,1610.33
327,,Чунаси,Чунаси,,,12,,,,,,,,
329,,Исси,Исси,,,27,,,,,,,,
331,Gigatl',Гигатль,Гигатль,824,496,767,1349,42.58136,46.0964,Chamalal,,Daghestan,,1782.37
333,Batlakhatli,Батлахатли,Батлахатли,,,72,3,42.580364,46.058877,Chamalal,,Daghestan,,1727.36
335,,Калих-3,Калих-3,,,62,,,,,,,,
337,,Инцатли,Инцатли,,,14,,,,,,,,
339,,Цачах,Цачах,,,116,,,,,,,,
341,Gimerso,Гимерсо,Гимерсо,304,253,285,211,42.561489,46.227545,Bagvalal,,Daghestan,,1678.71
343,Godoberi,Годобери,Годобери,887,1147,743,3050,42.6258,46.1189,Godoberi,,Daghestan,,1438.76
345,,Белуха,Белуха,,,4,,,,,,,,
347,,Букуду,Букуду,,,6,,,,,,,,
349,,Ниж. Годобери (часть),Ниж. Годобери (часть),,,172,,,,,,,,
351,,Лудига (часть Годобери),Лудига (часть Годобери),,,52,,,,,,,,
353,,Рахатлы,Рахатлы,,,67,,,,,,,,
355,,Цаху,Цаху,,,2,,,,,,,,
357,,Шахитль,Шахитль,,,4,,,,,,,,
359,Danukh,Данух,Данух,274,220,390,810,42.84282,46.6275,Chechen,,Daghestan,,1691.8
361,Zibirkhali,Зибирхали,Зибирхали,285,279,147,64,42.66833,46.07194,Godoberi,,Daghestan,,1791.06
363,,разв. Белеби,разв. Белеби,,,47,,,,,,,,
365,,Гахибет,Гахибет,,,4,,,,,,,,
367,,Зибиру,Зибиру,,,30,,,,,,,,
369,,Рухуг,Рухуг,,,9,,,,,,,,
371,,Хадникала,Хадникала,,,5,,,,,,,,
373,,Хинхитель,Хинхитель,,,15,,,,,,,,
375,,№ 1,№ 1,,,6,,,,,,,,
377,,№ 2,№ 2,,,8,,,,,,,,
379,Izano,Изано,Изано,412,433,318,1211,42.52735,46.40389,Akhvakh,,Daghestan,,1823.76
381,,Хунди,Хунди,,,46,,,,,,,,
383,Ingerdakh,Ингердах,Ингердах,456,490,531,1065,42.58926,46.398373,Avar,,Daghestan,,1881.92
385,Ingishi,Ингиши,Ингиши,414,454,455,839,42.77477,46.54264,Avar,,Daghestan,,1533.04
387,Verkhnee Inkhelo,Верхнее Инхело,Верхнее Инхело,404,300,41,400,42.62035,46.329732,Karata,,Daghestan,,1356.07
389,,Зиндулла,Зиндулла,,,14,,,,,,,,
391,Mashtada,Маштада,Маштада,,,152,267,42.61362,46.314659,Karata,,Daghestan,,1225.34
393,,Чабакуры,Чабакуры,,,259,,,,,,,,
395,Nizhnee Inkhelo,Нижнее Инхело,Нижнее Инхело,434,436,494,2111,42.645134,46.259367,Karata,,Daghestan,,748.6
397,Verkhnee Inkho,Верхнее Инхо,Верхнее Инхо,399,423,380,1030,42.70659,46.50415,Avar,,Daghestan,,633.35
399,Chitl',Читль,Читль,246,219,230,440,42.722594,46.504009,Avar,,Daghestan,,690.85
401,Nizhnee Inkho,Нижнее Инхо,Нижнее Инхо,558,557,477,1343,42.704518,46.507752,Avar,,Daghestan,,558.64
403,Ichichali,Ичичали,Ичичали,489,484,482,156,42.732617,46.405263,Avar,,Daghestan,,1663.77
405,Karata,Карата,Карата,960,948,1262,4154,42.5942,46.3419,Karata,,Daghestan,,1463.63
407,Rachabulda,Рачабулда,Рачабулда,100,90,145,168,42.617256,46.300014,Karata,,Daghestan,,1307.5
409,Kizhani,Кижани,Кижани,309,314,309,345,42.74031,46.364775,Avar,,Daghestan,,1515.36
411,Kilyatl',Килятль,Килятль,581,519,637,1034,42.704637,46.466046,Avar,,Daghestan,,948.68
413,Kvanada,Кванада,Кванада,846,830,996,1389,42.561478,46.17397,Bagvalal,,Daghestan,,1635.52
415,Kvankhidatli,Кванхидатли,Кванхидатли,546,419,420,921,42.65789,46.271742,Andi,,Daghestan,,714.97
417,Kudiyabroso,Кудиябросо,Кудиябросо,708,700,367,2233,42.541069,46.377932,Akhvakh,,Daghestan,,1566.52
419,,Гоштада,Гоштада,,,90,,,,,,,,
421,,Дамиг,Дамиг,,,76,,,,,,,,
423,,Саминг,Саминг,,,92,,,,,,,,
425,,разв. Тунситль,разв. Тунситль,,,149,,,,,,,,
427,,Хвадо-Кало,Хвадо-Кало,,,55,,,,,,,,
429,,Шама,Шама,,,44,,,,,,,,
431,,Шушу-Кари,Шушу-Кари,,,32,,,,,,,,
433,Mesterukh,Местерух,Местерух,492,504,585,1009,42.5747,46.3964,Avar,,Daghestan,,1550.97
435,Mekhel'ta,Мехельта,Мехельта,1873,10171,1919,3309,42.798277,46.497361,Avar,,Daghestan,,1487.86
437,Miarso,Миарсо,Миарсо,278,282,276,1714,42.654059,46.175643,Botlikh,,Daghestan,,825.15
439,Muni,Муни,Муни,911,748,586,3220,42.680242,46.308874,Andi,,Daghestan,,714.58
441,Ortakolo,Ортаколо,Ортаколо,162,137,80,598,42.67057,46.38882,Avar,,Daghestan,,651.72
443,Rushukha,Рушуха,Рушуха,,,47,58,42.71509,46.28112,Andi,,Daghestan,,1677.9
445,Ratsitl',Рацитль,Рацитль,343,360,362,112,42.63788,46.33455,Karata,,Daghestan,,1893.68
447,Rikvani,Риквани,Риквани,687,770,836,769,42.782304,46.319372,Andi,,Daghestan,,1874.55
449,Staryy Sivukh,Старый Сивух,Старый Сивух,802,882,772,,42.80278,46.43694,Avar,,Daghestan,,1874.59
451,Tad-Magitl',Тад-Магитль,Тад-Магитль,735,331,295,1203,42.550266,46.348953,Akhvakh,,Daghestan,,1443.9
453,Kvankero,Кванкеро,Кванкеро,,496,205,369,42.55244,46.3404,Akhvakh,,Daghestan,,1359.34
455,,Куитли,Куитли,,,201,,,,,,,,
457,,Мазаетлох,Мазаетлох,,,51,,,,,,,,
459,,Чакидири,Чакидири,,,36,,,,,,,,
461,,Чанди,Чанди,,,112,,,,,,,,
463,,Чухотль,Чухотль,,,47,,,,,,,,
465,Tando,Тандо,Тандо,571,564,653,641,42.707696,46.175693,Avar,,Daghestan,,1452.21
467,Tasuta,Тасута,Тасута,240,275,347,369,42.71731,46.22568,Avar,,Daghestan,,1614.82
469,,Анхо,Анхо,,,30,,,,,,,,
471,Tindi,Тинди,Тинди,1678,2050,386,2309,42.454716,46.13469,Tindi,,Daghestan,,1489.01
473,,Анисучи,Анисучи,,,8,,,,,,,,
475,,Анхи,Анхи,,,29,,,,,,,,
477,,коч. Анцуда,коч. Анцуда,,,19,,,,,,,,
479,,Ачилобачи,Ачилобачи,,,37,,,,,,,,
481,,? Бехвалутчи/Бехахутли,? Бехвалутчи/Бехахутли,,,45,26,,,,,,,
483,,Бичичи,Бичичи,,,98,,,,,,,,
485,,Гагичи,Гагичи,,,10,,,,,,,,
487,Gadaychi,Гадайчи,Гадайчи,,,73,210,42.470059,46.070951,Tindi,,Daghestan,,1052.09
489,,Ганга,Ганга,,,36,,,,,,,,
491,,Гачитль,Гачитль,,,31,,,,,,,,
493,Gvanachi,Гвиначи,Гвиначи,,,141,45,42.4606005,46.1622609,Tindi,,Daghestan,,1965.69
495,,Италт,Италт,,,7,,,,,,,,
497,,Ичидары,Ичидары,,,8,,,,,,,,
499,,Качак,Качак,,,8,,,,,,,,
501,,Койны,Койны,,,18,,,,,,,,
503,,Косачи,Косачи,,,52,,,,,,,,
505,,Мулла,Мулла,,,116,,,,,,,,
507,,Мусаря,Мусаря,,,76,,,,,,,,
509,,Обатль,Обатль,,,48,,,,,,,,
511,Gunduchi,Гундучи,Гундучи,,,102,,42.424818,46.15836,Tindi,,Daghestan,,1719.97
513,Sanukh,Санух,Санух,,,47,23,42.47054,46.13446,Tindi,,Daghestan,,1805.66
515,Tenla,Тенла,Тенла,,,82,65,42.465771,46.128629,Tindi,,Daghestan,,1639.41
517,Tissi-Akhitli,Тисси-Ахитли,Тисси-Ахитли,,,56,446,42.501506,46.103923,Tindi,,Daghestan,,1002.21
519,Tissi,Тисси,Тисси,204,225,331,576,42.48917,46.14395,Tindi,,Daghestan,,1674.44
521,,Халаки,Халаки,,,27,,,,,,,,
523,Khalikh,Халих,Халих,,,32,48,42.48467,46.09121,Tindi,,Daghestan,,1088.78
525,,Хилачи,Хилачи,,,11,,,,,,,,
527,,коч. Ханаси,коч. Ханаси,,,32,,,,,,,,
529,,Цератли,Цератли,,,50,,,,,,,,
531,,Элла,Элла,,,41,,,,,,,,
533,,Эмимигич,Эмимигич,,,53,,,,,,,,
535,Tlibisho,Тлибишо,Тлибишо,287,296,250,939,42.56054,46.30101,Bagvalal,,Daghestan,,1667.69
537,Tlisi,Тлиси,Тлиси,99,97,149,210,42.56209,46.27428,Bagvalal,,Daghestan,,1976.58
539,Tlondoda,Тлондода,Тлондода,532,485,559,466,42.5247,46.1989,Bagvalal,,Daghestan,,1946.62
541,Tlokh,Тлох,Тлох,1078,1383,945,2741,42.6492,46.4578,Avar,,Daghestan,,1059.96
543,Tlyanub,Тлянуб,Тлянуб,464,594,494,229,42.43568,46.45745,Akhvakh,,Daghestan,,1645.93
545,,Тлярата,Тлярата,318,343,318,582,,,,,,,
547,,Тукита,Тукита,584,643,657,765,,,,,,,
549,Khvarshi,Хварши,Хварши,538,525,281,335,42.353471,46.107859,Xvarshi,,Daghestan,,2044.16
551,Santlada,Сантлада,Сантлада,180,209,148,109,42.38431,46.07505,Xvarshi,Inkhoqwari,Daghestan,,1742.73
553,,Хонох,Хонох,,,65,581,,,,,,,
555,Kheleturi,Хелетури,Хелетури,410,445,580,721,42.612495,46.225441,Avar,,Daghestan,,1449.51
557,Khushtada,Хуштада,Хуштада,739,664,813,842,42.517389,46.166126,Bagvalal,,Daghestan,,1665.2
559,Tsekob,Цекоб,Цекоб,481,536,493,143,42.422785,46.450219,Akhvakh,,Daghestan,,1613.07
561,Tsilitl',Цилитль,Цилитль,466,509,521,520,42.8125,46.4156,Avar,,Daghestan,,1904.13
563,Tsoloda,Цолода,Цолода,409,430,577,535,42.63827,46.36626,Avar,,Daghestan,,2157.97
565,Chanko,Чанко,Чанко,264,351,116,485,42.717936,46.246417,Andi,,Daghestan,,1603.62
567,,Анхо,Анхо,,,28,37,,,,,,,
569,,Камилю,Камилю,,,8,,,,,,,,
571,,Митларота,Митларота,,,54,,,,,,,,
573,Khando,Хандо,Хандо,,,18,35,42.72694,46.23361,Andi,,Daghestan,,1472.68
575,,Шувуральда,Шувуральда,,,42,,,,,,,,
577,Chirkata,Чирката,Чирката,642,639,819,1923,42.783992,46.716609,Avar,,Daghestan,,422.57
579,Shabdukh,Шабдух,Шабдух,228,218,224,145,42.75612,46.42139,Avar,,Daghestan,,1914.83
581,Tsundi,Цунди,Цунди,210,229,194,368,42.740996,46.436577,Avar,,Daghestan,,1735.39
583,Shodroda (Shadroda),Шодрода,Шодрода,453,436,572,807,42.678426,46.12155,Avar,,Daghestan,,1205.69
657,Aymaki,Аймаки,Аймаки,663,748,884,2342,42.5342,47.1383,Avar,,Daghestan,,1282.49
659,Arkas,Аркас,Аркас,140,146,268,317,42.65194,47.13833,Avar,,Daghestan,,1281.19
661,,Хамхартала,Хамхартала,,,36,,,,,,,,
663,,ур.Кангалы,ур.Кангалы,309,299,335,,,,,,,,
665,Akhkent,Ахкент,Ахкент,301,330,394,1248,42.57353,47.18488,Avar,,Daghestan,,1545
667,Gelli,Гели,Гели,2312,2390,1527,2796,42.7267,47.4014,Kumyk,,Daghestan,,449.04
669,Adanak,Аданак,Аданак,,,19,1464,42.7522,47.4586,Kumyk,,Daghestan,,297.05
671,Buglen,Буглен,Буглен,1012,942,820,,42.7553,47.1989,Kumyk,,Daghestan,,521.5
673,,кутан Дардур,кутан Дардур,,,67,,,,,,,,
675,,Карти-Котан,Карти-Котан,,,15,,,,,,,,
677,Dorgeli,Доргели,Доргели,4291,4620,3162,5781,42.66556,47.29667,Kumyk,,Daghestan,,667.4
679,,Аданак-Котан,Аданак-Котан,,,14,,,,,,,,
681,,Кака,Кака,,,42,,,,,,,,
683,,Кака-Кас,Кака-Кас,,,21,,,,,,,,
685,,Какали-Баш,Какали-Баш,,,46,,,,,,,,
687,,Конабур-Котан,Конабур-Котан,,,105,,,,,,,,
689,,Кона-Котан,Кона-Котан,,,32,,,,,,,,
691,,Контук-Баш,Контук-Баш,,,8,,,,,,,,
693,,Мирза-Аул,Мирза-Аул,,,50,,,,,,,,
695,,Нан-Котан,Нан-Котан,,,7,,,,,,,,
697,,Тершаил,Тершаил,,,18,,,,,,,,
699,,Югары-Котан,Югары-Котан,,,15,,,,,,,,
701,Verkhniy Dzhengutay,Верхний Дженгутай,Верхний Дженгутай,1856,1756,1479,2145,42.67476,47.23415,Avar,,Daghestan,,742.35
703,Nizhniy Dzhengutay,Нижний Дженгутай,Нижний Дженгутай,4733,4314,4552,7517,42.7014,47.2417,Kumyk,,Daghestan,,625.99
705,Durangi,Дуранги,Дуранги,329,342,345,553,42.63571,47.22366,Avar,,Daghestan,,1040.06
707,,Нахадурали,Нахадурали,,,79,,,,,,,,
709,Nizhnie Ishkarty,Нижний Ишкарты,Нижний Ишкарты,631,551,539,1002,42.84698,46.97147,Kumyk,,Daghestan,,815.53
711,Verkhnie Ishkarty,Верхний Ишкарты,Верхний Ишкарты,,,180,377,42.84907,46.95309,Kumyk,,Daghestan,,848.09
713,Kadar,Кадар,Кадар,3261,3214,1530,2276,42.6242,47.2903,Dargwa,,Daghestan,,1107.49
715,,Ванаков,Ванаков,,,351,,,,,,,,
717,,Ванашимахи,Ванашимахи,,,380,283,,,,,,,
719,Karamakhi,Карамахи,Карамахи,,,810,4489,42.618786,47.256653,Dargwa,,Daghestan,,1071.25
721,Kachkalyk,Качкалык,Качкалык,,,408,419,42.61852,47.33391,Dargwa,,Daghestan,,1102.59
723,,Нуай,Нуай,,,244,,,,,,,,
725,Verkhnee Kazanische,Верхнее Казанище,Верхнее Казанище,2019,1972,2481,6576,42.7306,47.1381,Kumyk,,Daghestan,,725.33
727,,Айламабут,Айламабут,,,6,,,,,,,,
729,,Гергиш-Тала Б.,Гергиш-Тала Б.,,,54,,,,,,,,
731,,Гергиш-Тала М.,Гергиш-Тала М.,,,21,,,,,,,,
733,,Кончиз,Кончиз,,,5,,,,,,,,
735,,Курукташ,Курукташ,,,8,,,,,,,,
737,,Очакай-Тала,Очакай-Тала,,,19,,,,,,,,
739,,Узун-Тала,Узун-Тала,,,21,,,,,,,,
741,,Уртарака,Уртарака,,,15,,,,,,,,
743,,Чоколук Авзу,Чоколук Авзу,,,9,,,,,,,,
745,Nizhnee Kazanische,Нижнее Казанище,Нижнее Казанище,4652,4926,4890,12865,42.7644,47.1611,Kumyk,,Daghestan,,572.8
747,,Алитала,Алитала,,,5,,,,,,,,
749,,разв. Альма-Терек,разв. Альма-Терек,,,43,,,,,,,,
751,,Арта-Арки,Арта-Арки,,,7,,,,,,,,
753,,разв. Бавлакол,разв. Бавлакол,,,59,,,,,,,,
755,,Бакал,Бакал,,,21,,,,,,,,
757,,Багактул,Багактул,,,4,,,,,,,,
759,,Боралаго-Озло,Боралаго-Озло,,,18,,,,,,,,
761,,Бурчике,Бурчике,,,12,,,,,,,,
763,,Гашибит,Гашибит,,,53,,,,,,,,
765,,кутан Бугебулак,кутан Бугебулак,,,4,,,,,,,,
767,,Ковус,Ковус,,,14,,,,,,,,
769,,,Лесная сторож.,,,1,,,,,,,,
771,,,Лесная сторож.,,,11,,,,,,,,
773,,,Лесная сторож.,,,3,,,,,,,,
775,,,Лесная сторож.,,,3,,,,,,,,
777,,,Лесная сторож.,,,9,,,,,,,,
779,,,Лесная сторож.,,,3,,,,,,,,
781,,кутан Муку,кутан Муку,,,103,,,,,,,,
783,,Сийлали,Сийлали,,,32,,,,,,,,
785,,разв. Сокуркака,разв. Сокуркака,,,5,,,,,,,,
787,,Сувлука,Сувлука,,,30,,,,,,,,
789,,Темирхан-Капур,Темирхан-Капур,,,60,,,,,,,,
791,,кутан Тувар,кутан Тувар,,,44,,,,,,,,
793,,кутан Уллу-Су,кутан Уллу-Су,,,42,,,,,,,,
795,,кутан Айваликол,кутан Айваликол,,,41,,,,,,,,
797,,Хамхарчи-Точе,Хамхарчи-Точе,,,42,,,,,,,,
799,,кутан Эльмеликол,кутан Эльмеликол,,,19,,,,,,,,
801,Kaka-Shura,Кака-Шура,Кака-Шура,3626,3922,3097,6030,42.65194,47.38278,Kumyk,,Daghestan,,743.29
803,,Какамахи,Какамахи,,,71,1270,,,,,,,
805,,ур. Курте,ур. Курте,,,180,,,,,,,,
807,,ур.Маралмахи,ур.Маралмахи,,,74,,,,,,,,
809,,ур.Хурсанмахи,ур.Хурсанмахи,,,75,,,,,,,,
811,,ур.Капчугай,ур.Капчугай,589,445,531,,,,,,,,
813,Uchkent,Учкент,Учкент,,,26,3699,43.1136,47.0794,Avar,,Daghestan,,131.46
815,,,Ж. д. будка на 18-й версте,,,4,,,,,,,,
817,Verkhniy Karanay,Верхний Каранай,Верхний Каранай,778,850,1161,737,42.8281,46.9072,Avar,,Daghestan,,1230.2
819,,Богатырь,Богатырь,,,78,,,,,,,,
821,Gindib,Гинта,Гинта,,,78,,42.11296,46.50397,Avar,,Daghestan,,2013.51
821,Ginta,Гинта,Гинта,,,78,,42.2042,47.4186,Dargwa,,Daghestan,,1588.97
823,Nizhniy Karanay,Нижний Каранай,Нижний Каранай,658,659,462,192,42.84729,46.940488,Avar,,Daghestan,,906.68
825,Kafyr-Kumukh,Кафыр-Кумух,Кафыр-Кумух,1298,1116,1231,5103,42.83754,47.15412,Kumyk,,Daghestan,,369.48
827,,кутан Актёбе,кутан Актёбе,,,11,,,,,,,,
829,,,Будка на 18 в.,,,4,,,,,,,,
831,,,Будка на 8 в.,,,7,,,,,,,,
833,,,Будка на 27 в.,,,14,,,,,,,,
835,,кутан Кесек-Арт,кутан Кесек-Арт,,,14,,,,,,,,
837,,Губур-Га,Губур-Га,,,6,,,,,,,,
839,,кутан Каратебе,кутан Каратебе,,,12,,,,,,,,
841,,Кара-Тюбе Вер.,Кара-Тюбе Вер.,,,6,,,,,,,,
843,,кутан Кар-Кар,кутан Кар-Кар,,,8,,,,,,,,
845,,,Мельница вод.,,,11,,,,,,,,
847,,,Мельница № 4,,,4,,,,,,,,
849,Takalay,Такалай,Такалай,,,15,414,42.89677,47.1644,Kumyk,,Daghestan,,255.22
851,Kuletsma,Кулецма,Кулецма,1439,1525,1250,2175,42.5556,47.2339,Avar,,Daghestan,,1368.48
853,Manasaul,Манасаул,Манасаул,223,269,496,629,42.7575,47.0397,Avar,,Daghestan,,825.84
855,Agachkala,Агачкала,Агачкала,24,,90,447,42.76698,47.07599,Kumyk,,Daghestan,,686.41
857,,,Лесная сторож.,,,30,,,,,,,,
859,,Атланаул,Атланаул,661,557,717,2375,,,,,,,
861,Okhli,Охли,Охли,1138,1110,1366,1900,42.55565,47.209281,Avar,,Daghestan,,1427.74
863,Paraul,Параул,Параул,2597,2496,2088,4949,42.7394,47.3592,Kumyk,,Daghestan,,418.6
865,,Гляндур,Гляндур,,,49,,,,,,,,
867,Urma,Урма,Урма,1152,1250,1432,3861,42.5383,47.2869,Avar,,Daghestan,,1192.36
869,,ур.Ачаби,ур.Ачаби,,,94,,,,,,,,
871,Khalimbekaul,Халимбекаул,Халимбекаул,979,841,1100,5011,42.8447,47.1406,Kumyk,,Daghestan,,373.52
873,Apshi,Апши,Апши,1487,1431,1832,1655,42.6094,47.1742,Avar,,Daghestan,,1209.53
875,,Бухна-Бака,Бухна-Бака,,,13,,,,,,,,
877,,Чиркейская ГЭС,Чиркейская ГЭС,,,2640,,,,,,,,
879,Akaytala,Акайтала,Акайтала,,,197,688,43.03176,46.92583,Avar,,Daghestan,,475.86
881,,Ахмадатор,Ахмадатор,,,50,,,,,,,,
883,,ур.Аччи,ур.Аччи,,,26,,,,,,,,
885,,ур.Ахмей-Отар,ур.Ахмей-Отар,,,67,,,,,,,,
887,,Дуржул,Дуржул,,,113,,,,,,,,
889,,кут.Кака,кут.Кака,,,305,,,,,,,,
891,,Качмас,Качмас,,,24,,,,,,,,
893,,разв.Мугу-Тола,разв.Мугу-Тола,,,93,,,,,,,,
895,,бывший Черкей,бывший Черкей,894,821,345,,,,,,,,
897,,Чоригал,Чоригал,,,32,,,,,,,,
899,Orada-Chugli,Орада Чугли,Орада Чугли,403,470,452,982,42.49384,47.22264,Avar,,Daghestan,,1537.55
901,,Амирала,Амирала,,,35,,,,,,,,
903,Erpeli,Эрпели,Эрпели,2548,2929,2440,3415,42.806119,46.973557,Kumyk,,Daghestan,,798.26
905,,кутан Акайбулак,кутан Акайбулак,,,74,,,,,,,,
907,,Канят-Булак,Канят-Булак,,,5,,,,,,,,
909,,кут.Кудуш,кут.Кудуш,,,145,,,,,,,,
911,,Темир-Чекарик,Темир-Чекарик,,,5,,,,,,,,
913,,кутан Чем-Аул,кутан Чем-Аул,,,127,,,,,,,,
915,,ур.Шамхалбулак,ур.Шамхалбулак,,,265,,,,,,,,
917,Ekibulak,Экибулак,Экибулак,,,130,111,43.04196,47.07152,Kumyk,,Daghestan,,268.95
919,,Без названия,Без названия,,,107,,,,,,,,
921,Archib,Арчиб,Арчиб,804,765,126,200,42.0664,46.8678,Archi,,Daghestan,,2009.67
923,Alchunib,Алчуниб,Алчуниб,,,189,193,42.05196,46.86943,Archi,,Daghestan,,2089.67
925,Kalib,Калиб,Калиб,,,43,,42.07054,46.86002,Archi,,Daghestan,,2117.4
927,Keserib,Кесериб,Кесериб,,,76,82,42.0647,46.888,Archi,,Daghestan,,2487.88
929,Kubatl',Кубатль,Кубатль,,,100,120,42.03659,46.85973,Archi,,Daghestan,,2160.43
931,Khilikh,Хилих,Хилих,,,165,248,42.05838,46.88751,Archi,,Daghestan,,2284.56
933,Khitab,Хитаб,Хитаб,,,157,273,42.07538,46.867234,Archi,,Daghestan,,1982.42
935,Chitab,Читаб,Читаб,189,199,190,200,42.10412,46.86914,Avar,,Daghestan,,1987.52
937,,Читинская мельница,Читинская мельница,,,0,,,,,,,,
939,Batsada,Бацада,Бацада,725,835,877,755,42.3036,46.9092,Avar,,Daghestan,,1580.36
941,,Ахнада,Ахнада,,,47,,,,,,,,
943,Kulla,Кулла,Кулла,557,590,423,27,42.31346,46.91014,Avar,,Daghestan,,1265.74
945,Gergebil',Гергебиль,Гергебиль,1193,1310,1489,5196,42.5047,47.0661,Avar,,Daghestan,,729.88
947,Gilib,Гилиб,Гилиб,462,463,438,642,42.1169,46.7761,Avar,,Daghestan,,1775.21
949,Goab,Гоаб,Гоаб,274,269,332,234,42.097185,46.738407,Avar,,Daghestan,,2287.04
951,Doronub,Доронуб,Доронуб,123,131,111,150,42.124689,46.809427,Avar,,Daghestan,,1876.57
953,Karanub,Карануб,Карануб,194,197,145,161,42.12262,46.81777,Avar,,Daghestan,,1978.08
955,Kutikh,Кутих,Кутих,205,233,114,224,42.12587,46.78902,Avar,,Daghestan,,1737.7
957,Gogotl',Гоготль,Гоготль,450,482,436,466,42.45481,46.76547,Avar,,Daghestan,,1407.39
959,Gonoda,Гонода,Гонода,599,637,639,1415,42.4697,46.7892,Avar,,Daghestan,,1281.42
961,Gochada,Гочада,Гочада,622,661,459,147,42.272626,46.765272,Avar,,Daghestan,,1557.76
963,Gunukh,Гунух,Гунух,326,331,317,87,42.28043,46.76307,Avar,,Daghestan,,1780.07
965,Murukh,Мурух,Мурух,59,58,69,82,42.27719,46.7715,Avar,,Daghestan,,1780.5
967,Tlyarosh,Тлярош,Тлярош,486,713,556,410,42.275317,46.751805,Avar,,Daghestan,,1588.36
969,Talukh,Талух,Талух,190,159,179,95,42.25652,46.74433,Avar,,Daghestan,,1978.37
971,,Цор,Цор,,,2,,,,,,,,
973,Gochob,Гочоб,Гочоб,688,765,702,476,42.2375,46.6642,Avar,,Daghestan,,2019.77
975,Urukh-Sota,Урух-Сота,Урух-Сота,175,168,193,151,42.24222,46.67694,Avar,,Daghestan,,1820.29
977,Dusrakh,Дусрах,Дусрах,333,333,315,280,42.1275,46.8792,Avar,,Daghestan,,1872.45
979,,Кехаб,Кехаб,,,43,,,,,,,,
981,Kosroda,Косрода,Косрода,208,205,186,114,42.13141,46.85829,Avar,,Daghestan,,2096.43
983,Kuchrab,Кучраб,Кучраб,296,313,292,46,42.17506,46.90244,Avar,,Daghestan,,2011.06
985,Mogrob,Могроб,Могроб,110,109,90,16,42.15672,46.86521,Avar,,Daghestan,,1958.78
987,Chvadab,Чвадаб,Чвадаб,208,213,151,109,42.13028,46.87639,Avar,,Daghestan,,1856.02
989,,Чильдаб,Чильдаб,140,155,134,,,,,,,,
991,Chanab,Чанаб,Чанаб,105,113,104,16,42.125345,46.90434,Avar,,Daghestan,,2298.4
993,Irib,Ириб,Ириб,562,555,460,1108,42.1606,46.8169,Avar,,Daghestan,,1646.96
995,,Мукрах,Мукрах,63,59,61,,,,,,,,
997,Nukush,Нукуш,Нукуш,246,255,168,175,42.1492,46.80579,Avar,,Daghestan,,1697.74
999,Rul'dab,Рульдаб,Рульдаб,426,145,153,37,42.18472,46.85028,Avar,,Daghestan,,1990.75
1001,Tsemer,Цемер,Цемер,147,285,232,209,42.15195,46.75296,Avar,,Daghestan,,2093.42
1003,Tlyarobazutl',Тляробазутль,Тляробазутль,184,174,128,95,42.14039,46.77575,Avar,,Daghestan,,1942.02
1005,Khinub,Хинуб,Хинуб,291,289,280,305,42.17454,46.82406,Avar,,Daghestan,,1703.36
1007,Kakhib,Кахиб,Кахиб,1610,1682,1312,1090,42.4272,46.5969,Avar,,Daghestan,,1575.31
1009,Goor,Гоор,Гоор,932,896,813,809,42.43339,46.56927,Avar,,Daghestan,,1554.24
1011,Verkhniy Kolob,Верхний Колоб,Верхний Колоб,,,159,81,42.42614,46.6579,Avar,,Daghestan,,1733.34
1013,Kienikh,Киэних,Киэних,,,63,25,42.43056,46.66639,Avar,,Daghestan,,1386.08
1015,Mokoda,Мокода,Мокода,,,90,100,42.42385,46.66963,Avar,,Daghestan,,1630.72
1017,Nizhniy Kolob,Нижний Колоб,Нижний Колоб,,,102,52,42.430087,46.659303,Avar,,Daghestan,,1572.14
1019,Khamakal,Хамакал,Хамакал,,,51,122,42.428109,46.674497,Avar,,Daghestan,,1427.66
1021,Goor-Khindakh,Гоор-Хиндах,Гоор-Хиндах,,,103,267,42.449273,46.575312,Avar,,Daghestan,,1042.85
1023,,Хорода,Хорода,,,113,196,,,,,,,
1025,Chvadab,Чудиб,Чудиб,,,35,,42.13028,46.87639,Avar,,Daghestan,,1856.02
1027,Keger,Кегер,Кегер,608,3475,709,596,42.3767,47.0275,Avar,,Daghestan,,1499.56
1029,,Укитль,Укитль,,,81,,,,,,,,
1031,Kikuni,Кикуни,Кикуни,1081,943,1008,3224,42.513979,47.036122,Avar,,Daghestan,,654.8
1033,Akushali,Акушали,Акушали,,,85,51,42.4992,46.9504,Avar,,Daghestan,,1617.05
1035,Iputa,Ипута,Ипута,,,217,97,42.47852,46.96592,Avar,,Daghestan,,1454.63
1037,,ур.Хулиб,ур.Хулиб,,,106,,,,,,,,
1039,Koroda,Корода,Корода,1507,1456,1380,939,42.44961,46.846988,Avar,,Daghestan,,856.59
1041,Karadakh,Карадах,Карадах,,,9,392,42.471023,46.863724,Avar,,Daghestan,,706.88
1043,Kudali,Кудали,Кудали,978,967,1123,914,42.3678,47.0789,Avar,,Daghestan,,1412.06
1045,Silta,Силта,Силта,,,155,258,42.38728,47.07127,Avar,,Daghestan,,1230.88
1047,,Абдуразда,Абдуразда,,,10,,,,,,,,
1049,,Амир-Харик,Амир-Харик,,,36,,,,,,,,
1051,Agada,Агада,Агада,,,35,45,42.412001,46.841895,Avar,,Daghestan,,1210.09
1053,,Ачада,Ачада,,,6,,,,,,,,
1055,,Балдутль,Балдутль,,,41,11,,,,,,,
1057,Balanub,Балануб,Балануб,,,120,115,42.4284,46.8251,Avar,,Daghestan,,1032.06
1059,,Басар,Басар,,,20,13,,,,,,,
1061,,Бацикварих,Бацикварих,,,18,3,,,,,,,
1063,,Бетер,Бетер,,,50,,,,,,,,
1065,,Газилала,Газилала,,,92,12,,,,,,,
1067,Dadulazda,Дадулазда,Дадулазда,,,66,26,42.4189,46.80373,Avar,,Daghestan,,1259.15
1069,Ivaylazda,Ивайлазда,Ивайлазда,,,32,73,42.42,46.79917,Avar,,Daghestan,,1323.56
1071,,Кодух,Кодух,,,39,,,,,,,,
1073,Kuker,Кукер,Кукер,,,74,16,42.43106,46.80982,Avar,,Daghestan,,1260.39
1075,Lakhchayda,Лахчайда,Лахчайда,,,32,42,42.41345,46.8378,Avar,,Daghestan,,1201.4
1077,,Магомедхан,Магомедхан,,,16,,,,,,,,
1079,,Мучула,Мучула,,,9,,,,,,,,
1081,Mugdab,Мугдаб,Мугдаб,,,58,97,42.420445,46.807523,Avar,,Daghestan,,1234.61
1083,Rosutl',Росутль,Росутль,,,139,78,42.41533,46.8308,Avar,,Daghestan,,1162.04
1085,Sekh,Сех,Сех,2142,2142,197,289,42.416094,46.826447,Avar,,Daghestan,,1219.23
1087,Tlogob,Тлогоб,Тлогоб,,,140,216,42.4189,46.8153,Avar,,Daghestan,,1250.39
1089,,Уларуда,Уларуда,,,30,,,,,,,,
1091,Bol'shoy Urala,Большой Урала,Большой Урала,,,250,173,42.424277,46.805844,Avar,,Daghestan,,1331.03
1093,,Усилиб,Усилиб,,,30,,,,,,,,
1095,,Хаман,Хаман,,,32,,,,,,,,
1097,Khamagib,Хамагиб,Хамагиб,,,56,71,42.402538,46.850422,Avar,,Daghestan,,1363.85
1099,Khebdib,Хебдиб (Хебдит),Хебдиб (Хебдит),,,35,33,42.43,46.86,Avar,,Daghestan,,1215.88
1101,,Хелазда,Хелазда,,,6,,,,,,,,
1103,Khatsunob,Хацуноб,Хацуноб,,,81,62,42.425999,46.802058,Avar,,Daghestan,,1373.22
1105,,Хочо-Бакда,Хочо-Бакда,,,59,,,,,,,,
1107,Tsalada,Цалада,Цалада,,,126,203,42.42472,46.81472,Avar,,Daghestan,,1126.99
1109,,Цихиль-Куя,Цихиль-Куя,,,4,,,,,,,,
1111,,Чарах,Чарах,,,297,,,,,,,,
1113,,Шахаразда,Шахаразда,,,5,,,,,,,,
1115,,Щубада,Щубада,,,14,,,,,,,,
1117,Enseruda,Энсеруда,Энсеруда,,,18,37,42.40611,46.85278,Avar,,Daghestan,,1360.55
1119,Egeda,Эгеда,Эгеда,,,33,59,42.409124,46.844276,Avar,,Daghestan,,1279.03
1121,Maali,Маали,Маали,963,1000,948,2921,42.4858,46.9197,Avar,,Daghestan,,1005.92
1123,,Урух Верхн.,Урух Верхн.,,,8,,,,,,,,
1125,,Урух Нижн.,Урух Нижн.,,,8,,,,,,,,
1127,Magar,Магар,Магар,318,340,217,296,42.19546,46.843669,Avar,,Daghestan,,1493.3
1129,Baginub,Багинуб,Багинуб,101,132,121,40,42.1743,46.88159,Avar,,Daghestan,,1917.81
1131,,мтф Кульзеб,мтф Кульзеб,266,274,223,,,,,,,,
1133,Mukutl',Мукутль,Мукутль,164,166,188,94,42.19562,46.861381,Avar,,Daghestan,,1776.84
1135,Sodab,Содаб,Содаб,114,114,89,72,42.215081,46.81015,Avar,,Daghestan,,1771.5
1137,,Хецуб,Хецуб,99,97,100,,,,,,,,
1139,Khurukh,Хурух,Хурух,336,355,304,87,42.18441,46.85807,Avar,,Daghestan,,1774.29
1141,Tseneb,Ценеб,Ценеб,264,268,208,131,42.206684,46.842652,Avar,,Daghestan,,1687.96
1143,Chunib,Чуниб,Чуниб,109,113,93,34,42.20496,46.82498,Avar,,Daghestan,,1906.24
1145,,разв.Шугинуб,разв.Шугинуб,127,123,120,,,,,,,,
1147,Megeb,Мегеб,Мегеб,727,762,710,702,42.2528,47.0472,Dargwa,,Daghestan,,1712.15
1149,Moschob,Мощоб,Мощоб,139,155,175,24,42.21389,46.79167,Avar,,Daghestan,,2301.81
1151,Gidib,Гидиб,Гидиб,139,145,316,61,42.22942,46.80621,Avar,,Daghestan,,1776.49
1153,Murada,Мурада,Мурада,1370,835,194,1558,42.445422,46.954469,Avar,,Daghestan,,1229.65
1155,,Горт,Горт,,,116,,,,,,,,
1157,,Колтуху,Колтуху,,,125,,,,,,,,
1159,Darada,Дарада,Дарада,,,216,217,42.465606,46.936573,Avar,,Daghestan,,1513.76
1161,,разв.Цолода,разв.Цолода,,,36,,,,,,,,
1163,Obokh,Обох,Обох,434,656,408,358,42.28362,47.03734,Avar,,Daghestan,,1765.45
1165,Ratlub,Ратлуб,Ратлуб,735,635,730,958,42.359268,46.433433,Akhvakh,,Daghestan,,1581.42
1167,Dagbash,Дагбаш,Дагбаш,426,415,441,264,42.380347,46.351961,Avar,,Daghestan,,2015.06
1169,Ritlyab,Ритляб,Ритляб,,431,419,94,42.05087,46.71917,Avar,,Daghestan,,2259.69
1171,Rugel'da,Ругельда,Ругельда,466,503,381,572,42.3175,46.5244,Avar,,Daghestan,,1635.89
1173,Musrukh,,Мусрух,143,122,144,93,42.32897,46.51614,Avar,,Daghestan,,1758.41
1175,Urchukh,Урчух,Урчух,171,175,183,127,42.325548,46.495518,Avar,,Daghestan,,1627.01
1177,,Рукдах,Рукдах,98,105,85,,,,,,,,
1179,Somoda,Сомода,Сомода,300,210,264,459,42.30272,46.5368,Avar,,Daghestan,,1748.15
1181,,Хиндах,Хиндах,129,139,130,124,,,,,,,
1183,,Хонох,Хонох,215,226,242,117,,,,,,,
1185,Rugudzha,Ругуджа,Ругуджа,2005,1823,1940,1637,42.3606,46.9139,Avar,,Daghestan,,1428.43
1187,Khopor,Хопор,Хопор,,,67,45,42.352716,46.937396,Avar,,Daghestan,,1279.97
1189,Unkida,Ункида,Ункида,,,57,432,42.328698,46.885731,Avar,,Daghestan,,1393.08
1191,Salta,Салта,Салта,995,1123,909,684,42.39589,47.07048,Avar,,Daghestan,,1160.87
1193,Sogratl',Согратль,Согратль,1929,1987,2000,2359,42.2808,46.9914,Avar,,Daghestan,,1542.6
1195,Nakazukh,Наказух,Наказух,,,190,136,42.264594,46.914238,Avar,,Daghestan,,2003.32
1197,Sachada,Сачада,Сачада,309,249,354,145,42.258411,46.699595,Avar,,Daghestan,,1873.79
1199,Moksob,Моксоб,Моксоб,256,244,324,,43.434004,46.48603,Avar,,Daghestan,,25.19
1201,Sumeta,Сумета,Сумета,24,32,48,24,42.262025,46.705541,Avar,,Daghestan,,1711.93
1203,,разв.Сок,разв.Сок,171,139,162,,,,,,,,
1205,Teletl',Телетль,Телетль,1686,1824,1650,3552,42.4289,46.7317,Avar,,Daghestan,,1416.23
1207,Mitliurib,Митлиуриб,Митлиуриб,,,438,687,42.43537,46.68836,Avar,,Daghestan,,1664.5
1209,Urada,Урада,Урада,1338,1383,1117,2332,42.3822,46.5617,Avar,,Daghestan,,1423.95
1211,,Гетана Тлура,Гетана Тлура,,,24,,,,,,,,
1213,,Урадаколоб,Урадаколоб,,,16,8,,,,,,,
1215,Machada,Мачада,Мачада,551,515,503,429,42.37839,46.53725,Avar,,Daghestan,,1676.37
1215,,Мачада,Мачада,551,515,503,429,,,,,,,
1217,,Накитль,Накитль,,,103,196,,,,,,,
1219,Ravkvatl',Равкватль,Равкватль,,,91,34,42.372455,46.579617,Avar,,Daghestan,,1838.04
1221,Tidib,Тидиб,Тидиб,604,616,667,1089,42.3889,46.5742,Avar,,Daghestan,,1332.84
1223,Tlyakh,Тлях,Тлях,221,229,170,318,42.389928,46.540021,Avar,,Daghestan,,1364.88
1225,Khotoda,Хотода,Ходота,386,395,348,924,42.39393,46.559446,Avar,,Daghestan,,1235.3
1227,Genta,Гента,Гента,547,521,559,583,42.37001,46.56099,Avar,,Daghestan,,1702.55
1229,Urib,Уриб,Уриб,616,635,702,587,42.4564,46.6736,Avar,,Daghestan,,1572.8
1231,Ziurib,Зиуриб,Зиуриб,226,239,232,326,42.41789,46.705088,Avar,,Daghestan,,1846.06
1233,Khvartikuni,Хвартикуни,Хвартикуни,,603,637,1322,42.4569,47.0067,Avar,,Daghestan,,908.49
1235,Tunzi,Тунзи,Тунзи,,,263,141,42.46888,46.97573,Avar,,Daghestan,,1307.17
1237,Khvarada,Хварада,Хварада,,,139,41,42.46889,46.99406,Avar,,Daghestan,,1322.28
1239,,Хиндах,Хиндах,624,531,509,1172,,,,,,,
1241,,Бурдали,Бурдали,,,70,,,,,,,,
1243,,Голони,Голони,,,14,,,,,,,,
1245,,,Гуниб (лесная дача),,,21,,,,,,,,
1247,Gunib,,Гуниб,,,387,2271,42.388232,46.962258,Avar,,Daghestan,,1214.3
1249,,Молчада,Молчада,,,52,,,,,,,,
1251,Khotoch,Хоточ,Хоточ,895,827,633,1173,42.408408,46.954024,Avar,,Daghestan,,1046.62
1253,,Асса-Хахитил,Асса-Хахитил,,,4,,,,,,,,
1255,,Зевер,Зевер,,,184,,,,,,,,
1257,,Колоб-Раал,Колоб-Раал,,,13,,,,,,,,
1259,,Коралух,Коралух,,,2,,,,,,,,
1261,,Хуцда-Кала,Хуцда-Кала,,,6,,,,,,,,
1263,Khuchada,Хучада,Хучада,329,330,396,252,42.400235,46.469178,Avar,,Daghestan,,1805.74
1265,Tsulda,Цулда,Цулда,288,319,340,223,42.27357,46.72095,Avar,,Daghestan,,1902.81
1267,Gontlob,Гонтлоб,Гонтлоб,64,66,59,33,42.280673,46.726468,Avar,,Daghestan,,1838.5
1269,Utlukh,Утлух,Утлух,93,97,110,88,42.267533,46.730055,Avar,,Daghestan,,1636.5
1271,Charoda,Чарода,Чарода,,,390,439,42.2764,46.8019,Avar,,Daghestan,,1523.64
1273,,Бунараб-Рохоб,Бунараб-Рохоб,,,42,,,,,,,,
1275,Mugurukh,Мугурух,Мугурух,287,291,274,317,42.26064,46.86533,Avar,,Daghestan,,1733.84
1277,Chokh,Чох,Чох,1537,1497,1527,3222,42.3206,47.0336,Avar,,Daghestan,,1584.43
1279,Gamsutl',Гамсутль,Гамсутль,204,222,227,6,42.301972,46.996315,Avar,,Daghestan,,1646.53
1281,Shalib,Шалиб,Шалиб,464,501,454,171,42.09007,46.91826,Lak,,Daghestan,,2267.57
1283,Sshulani,Шулани,Шулани,458,493,436,744,42.3067,46.9294,Avar,,Daghestan,,1602.05
1285,Unty,Унты,Унты,264,279,256,384,42.311452,46.944631,Avar,,Daghestan,,1420.82
1287,Akusha,Акуша,Акуша,1988,953,2518,4700,42.275664,47.340107,Dargwa,,Daghestan,,1391.78
1287,Akusha,Акуша,Акуша,1988,953,2518,4700,42.275664,47.340107,Dargwa,,Daghestan,,1391.78
1289,,Убеки Махи,Убеки Махи,,,30,,,,,,,,
1291,,Абидуны Махи,Абидуны Махи,,,86,,,,,,,,
1293,Aynikabmakhi,Айникабмахи,Айникабмахи,327,373,146,380,42.26679,47.36264,Dargwa,,Daghestan,,1481.97
1295,,Имхила Махи,Имхила Махи,,,33,,,,,,,,
1297,Akhsakadamakhi,Ахсакадамахи,Ахсакадамахи,,,44,205,42.303416,47.381576,Dargwa,,Daghestan,,1374.48
1299,,Берги-Мак-Махи,Берги-Мак-Махи,,,225,,,,,,,,
1301,Bergeinzi,Бергеинзи,Бергеинзи,,,67,124,42.260462,47.352616,Dargwa,,Daghestan,,1350.51
1303,,Бични-Махи,Бични-Махи,,,44,,,,,,,,
1305,Burgimakmakhi,Бургимакмахи,Бургимакмахи,144,185,63,1283,42.2897,47.3769,Dargwa,,Daghestan,,1333.25
1307,Burgimakhi,Бургимахи,Бургимахи,,,50,136,42.27489,47.28652,Dargwa,,Daghestan,,1512.25
1309,,Вайкот,Вайкот,,,48,,,,,,,,
1311,,Ганжала-Кади Кунт,Ганжала-Кади Кунт,,,117,,,,,,,,
1313,Ganderamakhi,Гандарамахи,Гандарамахи,,,78,186,42.261093,47.333465,Dargwa,,Daghestan,,1464.74
1315,Gumramakhi,Гумрамахи,Гумрамахи,,,151,642,42.25101,47.35105,Dargwa,,Daghestan,,1384.8
1317,,Гурдхи-Махи,Гурдхи-Махи,,,112,,,,,,,,
1319,,Гури-Махи,Гури-Махи,,,51,,,,,,,,
1321,,Джарон-Махи,Джарон-Махи,,,55,,,,,,,,
1323,Dubrimakhi,Дубримахи,Дубримахи,943,999,256,692,42.274418,47.285133,Dargwa,,Daghestan,,1503.74
1325,Inzimakhi,Инзимахи,Инзимахи,,,145,1382,42.27238,47.35613,Dargwa,,Daghestan,,1409.19
1327,Kavkamakhi,Кавкамахи,Кавкамахи,489,523,426,1407,42.322184,47.30588,Dargwa,,Daghestan,,1676.33
1329,,Када-Кунт,Када-Кунт,,,58,,,,,,,,
1331,,Какил Кунт,Какил Кунт,,,101,,,,,,,,
1333,Kakmakhi,Какмахи,Какмахи,,,62,612,42.29169,47.38541,Dargwa,,Daghestan,,1357.44
1335,,Калтай-Махи,Калтай-Махи,,,82,,,,,,,,
1337,,Кергуз-Махи,Кергуз-Махи,,,39,,,,,,,,
1339,Kertukmakhi,Кертукмахи,Кертукмахи,,,94,662,42.28799,47.34305,Dargwa,,Daghestan,,1313.02
1341,,Кецли-Махи,Кецли-Махи,,,32,,,,,,,,
1343,Kamkadamakhi,Камкадамахи,Камкадамахи,,,114,288,42.255826,47.308527,Dargwa,,Daghestan,,1643.23
1345,,Кубин-Махи,Кубин-Махи,,,17,,,,,,,,
1347,,Кури-Махи В.,Кури-Махи В.,194,116,71,,,,,,,,
1349,Kurimakhi,Куримахи,Куримахи,92,209,423,1146,42.304306,47.304694,Dargwa,,Daghestan,,1253.8
1351,,Пунгри-Махи,Пунгри-Махи,,,31,,,,,,,,
1353,Semgamakhi,Семгамахи,Семгамахи,,,188,667,42.28438,47.35484,Dargwa,,Daghestan,,1409.71
1355,,Верхний Кавкамахи,Верхний Кавкамахи,749,105,86,452,,,,,,,
1357,,Турлуни,Турлуни,,,83,,,,,,,,
1359,Uznimakhi,Узнимахи,Узнимахи,208,229,91,910,42.30003,47.3858,Dargwa,,Daghestan,,1374.57
1361,Urgubamakhi,Ургубамахи,Ургубамахи,1045,,243,1071,42.28968,47.31783,Dargwa,,Daghestan,,1328.82
1363,Urkhuchimakhi,Урхучимахи,Урхучимахи,285,211,397,2290,42.310271,47.260222,Dargwa,,Daghestan,,1249.85
1365,Tserkhimakhi,Церхимахи,Церхимахи,,,34,494,42.276694,47.336755,Dargwa,,Daghestan,,1391.79
1367,Tsundimakhi,Цундимахи,Цундимахи,,,139,360,42.25164,47.31668,Dargwa,,Daghestan,,1641.2
1369,Tsunimakhi,Цунимахи,Цунимахи,194,200,225,484,42.29835,47.26194,Dargwa,,Daghestan,,1373.1
1371,Chankalamakhi,Чанкаламахи,Чанкаламахи,,,135,111,42.27788,47.365804,Dargwa,,Daghestan,,1416.49
1373,Chinimakhi,Чинимахи,Чинимахи,376,300,206,915,42.27565,47.37455,Dargwa,,Daghestan,,1339.99
1375,,Чини-Махи Н.,Чини-Махи Н.,,,62,,,,,,,,
1377,Shinkbalakada,Шинкбалакада,Шинкбалакада,,,164,18,42.261375,47.300242,Dargwa,,Daghestan,,1600.23
1379,Shumkhrimakhi,Шумхримахи,Шумхримахи,,,120,172,42.291042,47.268562,Dargwa,,Daghestan,,1419.61
1381,,Эбдала-Баганд-Кала-Махи,Эбдала-Баганд-Кала-Махи,,,83,,,,,,,,
1383,,Янцарамахи,Янцарамахи,,,77,,,,,,,,
1385,Alikhanmakhi,Алиханмахи,Алиханмахи,405,395,340,831,42.33194,47.26602,Dargwa,,Daghestan,,1555.16
1387,Verkhnie Kamkamakhi,Верхний Камкамахи,Верхний Камкамахи,,,15,75,42.32265,47.23945,Dargwa,,Daghestan,,1334.1
1389,Ameterkmakhi,Аметеркмахи,Аметеркмахи,725,721,441,2139,42.33081,47.213539,Dargwa,,Daghestan,,1137.06
1391,,Айнего-Махи,Айнего-Махи,,,22,,,,,,,,
1393,,Камха-Махи В.,Камха-Махи В.,,61,47,,,,,,,,
1395,,Нижнее Камкамахи,Нижнее Камкамахи,,159,197,,,,,,,,
1397,,Куркабе-Махи,Куркабе-Махи,,,74,,,,,,,,
1399,,Унака-Махи,Унака-Махи,,,25,,,,,,,,
1401,Balkhar,Балхар,Балхар,1424,1437,1195,941,42.2797,47.2314,Lak,,Daghestan,,1658.48
1403,,Кули,Кули,411,405,360,157,,,,,,,
1405,Tsulikana,Цуликана,Цуликана,389,374,272,264,42.25834,47.25676,Lak,,Daghestan,,1746.53
1407,Burdeki,Бурдеки,Бурдеки,339,335,399,652,42.3047,47.6703,Dargwa,,Daghestan,,747.93
1409,Butri,Бутри,Бутри,1294,1205,1097,1098,42.07426,47.44048,Dargwa,,Daghestan,,1560.36
1411,Vikri,Викри,Викри,925,909,834,22,42.20612,47.679702,Dargwa,,Daghestan,,1226.16
1413,,Ахмед-Махи,Ахмед-Махи,,,6,,,,,,,,
1415,Shadni,Шадни,Шадни,159,158,97,297,42.192172,47.648927,Lak,,Daghestan,,1349.84
1417,Gapshima,Гапшима,Гапшима,741,727,656,1706,42.2122,47.3261,Dargwa,,Daghestan,,1603.01
1419,,Мегва,Мегва,432,403,324,,,,,,,,
1421,,ур. Герга,ур. Герга,705,711,922,,,,,,,,
1423,Gerkhmakhi,Герхмахи,Герхмахи,584,600,611,2084,42.2634,47.52765,Dargwa,,Daghestan,,1686.35
1425,Geba,Геба,Геба,573,540,536,737,42.21527,47.39266,Dargwa,,Daghestan,,1633.95
1427,Gindib,Гинта,Гинта,1233,1208,1073,1535,42.11296,46.50397,Avar,,Daghestan,,2013.51
1427,Ginta,Гинта,Гинта,1233,1208,1073,1535,42.2042,47.4186,Dargwa,,Daghestan,,1588.97
1429,,Куркимахи,Куркимахи,343,347,330,395,,,,,,,
1431,Guladtymakhi,Гуладтымахи,Гуладтымахи,507,491,472,417,42.34823,47.23927,Dargwa,,Daghestan,,1542.89
1433,,Арга-Буршна,Арга-Буршна,,,17,,,,,,,,
1435,Guladty,Гуладты,Гуладты,726,699,638,663,42.11523,47.45074,Dargwa,,Daghestan,,1505.75
1437,Mirzita,Мирзита,Мирзита,209,207,162,372,42.1309,47.47663,Dargwa,,Daghestan,,1573
1439,Degva,Дегва,Дегва,411,132,540,821,42.4161,47.5372,Dargwa,,Daghestan,,948.23
1441,Deybuk,Дейбук,Дейбук,931,980,991,434,42.20532,47.51996,Dargwa,,Daghestan,,1538.88
1443,,МТФ Чадыкмахи,МТФ Чадыкмахи,138,118,96,,,,,,,,
1445,Dzhangamakhi,Джангамахи,Джангамахи,783,259,301,698,42.44335,47.38111,Dargwa,,Daghestan,,1295.27
1447,,ур.Удуб-Карчамахи,ур.Удуб-Карчамахи,,78,260,,,,,,,,
1449,Elakatmakhi,Элакатмахи,Элакатмахи,,298,323,74,42.454026,47.398334,Dargwa,,Daghestan,,1281.74
1451,Dzilebki,Дзилебки,Дзилебки,406,398,481,714,42.04989,47.55693,Dargwa,,Daghestan,,1645.35
1453,Sergokala,Сергокала,Сергокала,250,244,647,8141,42.4494,47.6633,Dargwa,,Daghestan,,538.02
1455,Duakar,Дуакар,Дуакар,276,263,291,248,42.064159,47.460081,Dargwa,,Daghestan,,1637.55
1457,Guzbaya,Гузбая,Гузбая,,,38,11,42.04744,47.51385,Dargwa,,Daghestan,,1796.41
1459,Kishamakhi,Кищамахи,Кищамахи,191,207,146,148,42.051,47.44197,Dargwa,,Daghestan,,1781.78
1459,Kishamakhi,Кищамахи,Кищамахи,191,207,146,148,42.051,47.44197,Dargwa,,Daghestan,,1781.78
1461,,разв. Муки,разв. Муки,55,56,83,,,,,,,,
1463,,Микрасанамахи,Микрасанамахи,78,76,78,53,,,,,,,
1465,Mukrakari,Мукракари,Мукракари,2,211,181,134,42.06667,47.5,Dargwa,,Daghestan,,1731.88
1467,Nikabarkmakhi,Никабаркмахи,Никабаркмахи,19,11,15,,42.01667,47.41667,Dargwa,,Daghestan,,2016.95
1469,Sumiya,Сумия,Сумия,209,203,175,148,42.04344,47.45616,Dargwa,,Daghestan,,1711.55
1471,Uzralmakhi,Узралмахи,Узралмахи,52,49,53,104,42.05782,47.44987,Dargwa,,Daghestan,,1667.77
1473,,Харачи-Махи,Харачи-Махи,23,14,18,,,,,,,,
1475,Khulabarkmakhi,Хулабаркмахи,Хулабаркмахи,167,156,134,113,42.05455,47.45676,Dargwa,,Daghestan,,1768.45
1477,,Шахбана-Махи,Шахбана-Махи,,,5,,,,,,,,
1479,Kakamakhi,Какамахи,Какамахи,955,933,770,2652,42.39507,47.30644,Dargwa,,Daghestan,,1298.26
1481,Ditunshimakhi,Дитуншимахи,Дитуншимахи,133,133,152,486,42.381665,47.289692,Dargwa,,Daghestan,,1410.48
1483,Kanasiragi,Канасираги,Канасираги,837,791,703,733,42.252582,47.649095,Dargwa,,Daghestan,,1113.08
1485,,Авулт,Авулт,,,12,,,,,,,,
1487,,Кунци,Кунци,,,17,,,,,,,,
1489,Karbuchimakhi,Карбучимахи,Карбучимахи,441,456,390,276,42.007461,47.429948,Dargwa,,Daghestan,,2046.58
1491,Ayatsimakhi,Аяцимахи,Аяцимахи,120,114,100,122,42.00618,47.46117,Dargwa,,Daghestan,,2041.28
1493,,разв. Муза,разв. Муза,,,5,,,,,,,,
1495,Kuppa,Куппа,Куппа,735,818,870,1459,42.4239,47.1231,Dargwa,,Daghestan,,1061.46
1497,Amalte,Амалте,Амалте,153,197,166,272,42.42457,47.11047,Dargwa,,Daghestan,,1111.92
1499,Kundurkhe,Кундурхе,Кундурхе,192,204,198,376,42.41424,47.11507,Dargwa,,Daghestan,,1121.42
1501,Verkhnie Arshi,Верхний Арши,Верхний Арши,362,319,401,993,42.40006,47.12529,Dargwa,,Daghestan,,1271.75
1503,Irgali,Иргали,Иргали,202,226,204,206,42.41281,47.13538,Dargwa,,Daghestan,,1212.37
1505,,Телагу,Телагу,214,249,287,215,,,,,,,
1507,Kutisha,Кутиша,Кутиша,1368,1358,1219,1919,42.4236,47.2831,Avar,,Daghestan,,1483.31
1509,,Амир-Али,Амир-Али,,,3,,,,,,,,
1511,,Ахмед,Ахмед,,,3,,,,,,,,
1513,,Гамза,Гамза,,,4,,,,,,,,
1515,,Маша,Маша,,,1,,,,,,,,
1517,,Маха,Маха,,,3,,,,,,,,
1519,Verkhnie Kabkomakhi,Верхнее Лабкомахи,Верхнее Лабкомахи,599,618,691,743,42.34176,47.43688,Dargwa,,Daghestan,,1665.67
1521,Nizhnie Labkomakhi,Нижнее Лабкомахи,Нижнее Лабкомахи,,416,325,365,42.35084,47.41873,Dargwa,,Daghestan,,1567.48
1523,Levashi,Леваши,Леваши,1188,1197,1614,10011,42.4325,47.3258,Dargwa,,Daghestan,,1219.93
1525,,Баганд-Махи,Баганд-Махи,,,31,,,,,,,,
1527,,Нугай-Махи,Нугай-Махи,,,5,,,,,,,,
1529,,Тубукла-Амарла-Махи,Тубукла-Амарла-Махи,,,5,,,,,,,,
1531,,Хаганаг-Махи,Хаганаг-Махи,,,3,,,,,,,,
1533,,Юнус-Омар-Гаджи,Юнус-Омар-Гаджи,,,12,,,,,,,,
1535,Meusisha,Меусиша,Меусиша,1454,1380,1408,1377,42.20199,47.59731,Dargwa,,Daghestan,,1537.79
1537,Mekegi,Мекеги,Мекеги,3866,2624,2550,2931,42.3978,47.4625,Dargwa,,Daghestan,,1344.53
1539,Adukmakhi,Адукмахи,Адукмахи,,,21,,42.39928,47.401891,Dargwa,,Daghestan,,1446.88
1541,Aysalakak,Айсалакак,Айсалакак,,45,81,21,42.374896,47.474825,Dargwa,,Daghestan,,1476.25
1543,Buanzimakhi,Буанзимахи,Буанзимахи,,140,173,168,42.42062,47.44966,Dargwa,,Daghestan,,1307.67
1545,Damkulakada,Дамкулакада,Дамкулакада,,143,97,48,42.430252,47.467675,Dargwa,,Daghestan,,1224.33
1547,Zurilaudimakhi,Зурилаудимахи,Зурилаудимахи,,83,143,461,42.4301,47.49276,Dargwa,,Daghestan,,1078.6
1549,,Кивурги-Махи,Кивурги-Махи,,50,30,,,,,,,,
1551,Purrimakhi,Пурримахи,Пурримахи,,135,292,77,42.426446,47.465673,Dargwa,,Daghestan,,1236.35
1553,,Субахтымахи,Субахтымахи,,,71,18,,,,,,,
1555,Tarlankak,Тарланкак,Тарланкак,,,157,27,42.385886,47.475817,Dargwa,,Daghestan,,1432.52
1557,,Хебрела-Эла,Хебрела-Эла,,137,77,3,,,,,,,
1559,,Цурри,Цурри,,,113,,,,,,,,
1561,Zhamsory,Жамсоры,Жамсоры,,42,73,,42.382089,47.462508,Dargwa,,Daghestan,,1442.42
1563,Chakhimakhi,Чахимахи,Чахимахи,,26,93,189,42.41564,47.56038,Dargwa,,Daghestan,,876.97
1565,Mugi,Муги,Муги,2649,2347,1950,3372,42.2989,47.4225,Dargwa,,Daghestan,,1518.06
1567,,ур. Аямахи,ур. Аямахи,,140,145,,,,,,,,
1569,,Бураган-Махи,Бураган-Махи,,,5,,,,,,,,
1571,,,Герхмахи,,,29,,,,,,,,
1573,,Кадарла-Дак,Кадарла-Дак,,,11,,,,,,,,
1575,,Осман-Махи,Осман-Махи,,,9,,,,,,,,
1577,,Панахмахи,Панахмахи,736,574,525,,,,,,,,
1579,,Унцала-Дубра,Унцала-Дубра,,,16,,,,,,,,
1581,,Шишквала,Шишквала,,,130,,,,,,,,
1583,Mugri,Мугри,Мугри,680,675,750,,42.26767,47.62872,Dargwa,,Daghestan,,1161.45
1585,,Ая,Ая,,,2,,,,,,,,
1587,,Ича,Ича,,,13,,,,,,,,
1589,,Куйчу,Куйчу,,,8,,,,,,,,
1591,,Мирке-Бугре,Мирке-Бугре,,,12,,,,,,,,
1593,,Хураки,Хураки,,,15,,,,,,,,
1595,Verkhnie Mulebki,Верхние Мулебки,Верхние Мулебки,1421,1419,1157,1446,42.31043,47.51924,Dargwa,,Daghestan,,1530.21
1597,Nizhnie Mulebki,Нижнее Мулебки,Нижнее Мулебки,2511,632,563,440,42.3281,47.5689,Dargwa,,Daghestan,,1258.67
1599,Aynurbimakhi,,Айнурбимахи,,321,390,287,42.29623,47.58462,Dargwa,,Daghestan,,1204.91
1601,Arachanamakhi,Арачанамахи,Арачанамахи,,,65,187,42.31923,47.58202,Dargwa,,Daghestan,,1124.92
1603,Bakhmakhi,Бахмахи,Бахмахи,,,224,226,42.30638,47.59269,Dargwa,,Daghestan,,1170.33
1605,Burkhimakhi,Бурхимахи,Бурхимахи,,162,171,130,42.3065,47.58607,Dargwa,,Daghestan,,1176.22
1607,Kardamakhi,Кардамахи,Кардамахи,,,78,107,42.37861,47.46639,Dargwa,,Daghestan,,1471.27
1609,Miglakasimakhi,Миглакасимахи,Миглакасимахи,,375,529,535,42.33599,47.56121,Dargwa,,Daghestan,,1142.97
1611,,Уллукимахи,Уллукимахи,,,109,276,,,,,,,
1613,,Ханти-Махи,Ханти-Махи,,,77,,,,,,,,
1615,Khantskarkamakhi,Ханцкаркамахи,Ханцкаркамахи,,,197,175,42.330333,47.550694,Dargwa,,Daghestan,,1186.37
1617,Tsurmakhi,Цурмахи,Цурмахи,,227,181,337,42.31845,47.57516,Dargwa,,Daghestan,,1161.99
1619,Murguk,Мургук,Мургук,1150,1085,876,1653,42.2669,47.6947,Dargwa,,Daghestan,,881.47
1621,Baltamakhi,Балтамахи,Балтамахи,,,198,394,42.29843,47.72877,Dargwa,,Daghestan,,732.91
1623,,Бахмуд-Кент,Бахмуд-Кент,,,35,,,,,,,,
1625,,МТФ Урханала,МТФ Урханала,,,89,,,,,,,,
1627,Naskent,Наскент,Наскент,1065,1012,956,2951,42.38093,47.33624,Dargwa,,Daghestan,,1352.23
1629,Nakhki,Нахки,Нахки,415,411,263,417,42.07562,47.39905,Dargwa,,Daghestan,,1683.03
1631,Arassamakhi,Арассамахи,Арассамахи,57,31,49,30,42.0579,47.40111,Dargwa,,Daghestan,,1823.64
1633,,Арахара-Махи,Арахара-Махи,,,8,,,,,,,,
1635,Bikalamakhi,Бикаламахи,Бикаламахи,102,76,72,57,42.04647,47.36054,Dargwa,,Daghestan,,1772.3
1637,Bukkamakhi,Буккамахи,Буккамахи,178,167,118,58,42.03148,47.41884,Dargwa,,Daghestan,,1760.24
1639,,Губача-Галицы,Губача-Галицы,,,48,,,,,,,,
1641,,ур. Доцурбалакада,ур. Доцурбалакада,64,81,37,,,,,,,,
1643,,ур. Доцурбалакада,ур. Доцурбалакада,,,17,,,,,,,,
1645,Kaddamakhi,Каддамахи,Каддамахи,46,46,48,94,42.045284,47.356444,Dargwa,,Daghestan,,1770.94
1647,Verkhniy Karshli,Верхний Каршли,Верхний Каршли,,260,140,165,42.05018,47.34231,Dargwa,,Daghestan,,1860.21
1649,Nizhniy Karshli,Нижний Каршли,Нижний Каршли,246,,67,85,42.049911,47.343884,Dargwa,,Daghestan,,1856.35
1651,Karashimakhi,Карашимахи,Карашимахи,81,70,46,59,42.02781,47.3975,Dargwa,,Daghestan,,1916.71
1653,,Куялла-Муг-Махи,Куялла-Муг-Махи,,,16,,,,,,,,
1655,Urkhulakar,Урхулакар,Урхулакар,95,86,64,89,42.04352,47.40002,Dargwa,,Daghestan,,1881.27
1657,Utsulimakhi,Уцулимахи,Уцулимахи,161,128,97,160,42.064935,47.42661,Dargwa,,Daghestan,,1759.04
1659,,разв. Хурдалая,разв. Хурдалая,33,,22,,,,,,,,
1661,Verkhnie Chiamakhi,Верхний Чиамахи,Верхний Чиамахи,172,170,115,78,42.02996,47.38803,Dargwa,,Daghestan,,1860.21
1663,Natsi,Наци,Наци,443,167,151,150,42.075335,47.38728,Dargwa,,Daghestan,,1784.84
1665,Karayamakhi,Караямахи,Караямахи,76,79,54,60,42.07822,47.34643,Dargwa,,Daghestan,,2153.26
1667,Kassagumakhi,Кассагумахи,Кассагумахи,155,110,103,143,42.044941,47.371867,Dargwa,,Daghestan,,1712.48
1669,Kuliyamakhi,Кулиямахи,Кулиямахи,197,217,188,209,42.07717,47.33501,Dargwa,,Daghestan,,2129.99
1671,,Макак-Махи,Макак-Махи,,,7,,,,,,,,
1673,Murlatinamakhi,Мурлатинамахи,Мурлатинамахи,30,33,25,28,42.08451,47.35718,Dargwa,,Daghestan,,1846.57
1675,,разв. Нахбармахи,разв. Нахбармахи,38,19,14,,,,,,,,
1677,Tuzlamakhi,Тузламахи,Тузламахи,,156,121,176,42.07877,47.36836,Dargwa,,Daghestan,,1741.46
1679,Urzhagimakhi,Уржагимахи,Уржагимахи,126,130,111,129,42.06149,47.37056,Dargwa,,Daghestan,,1772.81
1681,Giyagaramakhi,Гиягарамахи,Гиягарамахи,,71,54,73,42.08381,47.37841,Dargwa,,Daghestan,,2002.17
1683,Gunnamakhi,Гуннамахи,Гуннамахи,,65,27,59,42.04729,47.37328,Dargwa,,Daghestan,,1704.52
1685,Kubrimakhi,Кубримахи,Кубримахи,43,38,38,18,42.073018,47.372684,Dargwa,,Daghestan,,1787.25
1687,,разв.Санамахи,разв.Санамахи,1638,307,344,,,,,,,,
1689,,ур.Ниж.Алаци,ур.Ниж.Алаци,,56,48,,,,,,,,
1691,Allate,Аллате,Аллате,,455,551,713,42.369057,47.184036,Dargwa,,Daghestan,,1388.55
1693,Dingo,Динго,Динго,,,22,,42.35347,47.18138,Dargwa,,Daghestan,,1049.8
1695,Inkuchimakhi,Инкучимахи,Инкучимахи,,65,86,541,42.35029,47.17345,Dargwa,,Daghestan,,1106.42
1697,,Канда-Махи,Канда-Махи,,,16,,,,,,,,
1699,Kumamakhi,Кумамахи,Кумамахи,,145,200,397,42.35849,47.19214,Dargwa,,Daghestan,,1387.83
1701,,Кургу,Кургу,,,106,,,,,,,,
1703,,Магора,Магора,,372,105,,,,,,,,
1705,Musul'temakhi,Мусультемахи,Мусультемахи,,202,221,483,42.362154,47.188584,Dargwa,,Daghestan,,1368.56
1707,,Сана-Махи Н.,Сана-Махи Н.,,,140,,,,,,,,
1709,Tarlimakhi,Тарлимахи,Тарлимахи,,115,73,151,42.35587,47.17157,Dargwa,,Daghestan,,1035.54
1711,,Харк-Махи,Харк-Махи,,,8,,,,,,,,
1713,Gurgumakhi,Гургумахи,Гургумахи,,176,76,541,42.36056,47.19222,Dargwa,,Daghestan,,1429.43
1715,Sutbuk,Сутбук,Сутбук,363,359,327,286,42.1036,47.5403,Dargwa,,Daghestan,,1365.9
1717,,Акасса,Акасса,,,5,,,,,,,,
1719,Bakni,Бакни,Бакни,305,307,284,251,42.11618,47.53095,Dargwa,,Daghestan,,1476.04
1721,Urtsaki,Урцаки,Урцаки,511,521,504,299,42.09916,47.56236,Dargwa,,Daghestan,,1488.67
1723,Tanty,Танты,Танты,996,951,916,826,42.1642,47.3167,Dargwa,,Daghestan,,1783.24
1725,Tashkapur,Ташкапур,Ташкапур,475,495,533,1417,42.40805,47.17095,Dargwa,,Daghestan,,907.34
1727,,Карт-Махи,Карт-Махи,60,91,139,,,,,,,,
1729,Tebekmakhi,Тебекмахи,Тебекмахи,541,542,831,2274,42.3431,47.2072,Dargwa,,Daghestan,,1322.21
1731,,Кашае-Махи,Кашае-Махи,32,37,30,,,,,,,,
1733,,Куркаби Верхний,Куркаби Верхний,60,84,74,,,,,,,,
1735,Kurkabi,Куркаби,Куркаби,87,68,84,337,42.34194,47.20056,Dargwa,,Daghestan,,1123.32
1737,Verkhnie Ubekimakhi,Верхний Убекимахи,Верхний Убекимахи,712,644,411,842,42.36823,47.24298,Dargwa,,Daghestan,,1230.01
1739,Aynikab,Айникаб,Айникаб,162,195,73,103,42.369307,47.216093,Dargwa,,Daghestan,,1565.58
1741,,Ахмед-Хан-Махи,Ахмед-Хан-Махи,,,22,,,,,,,,
1743,,разв.Бахтимахи,разв.Бахтимахи,,55,44,,,,,,,,
1745,,Букун-Махи,Букун-Махи,,,14,,,,,,,,
1747,,Бурш-Махи,Бурш-Махи,,,58,,,,,,,,
1749,,Ганца-Махи,Ганца-Махи,,,34,,,,,,,,
1751,,Гуллай-Махи,Гуллай-Махи,,,13,,,,,,,,
1753,,разв. Зайдмахи,разв. Зайдмахи,,,25,,,,,,,,
1755,,разв.Каркутмахи,разв.Каркутмахи,,27,24,,,,,,,,
1757,,разв.Хинцамахи,разв.Хинцамахи,,,34,,,,,,,,
1759,,Койли-Махи,Койли-Махи,,,74,,,,,,,,
1761,Kusamakhi,разв.Кусамахи,разв.Кусамахи,,49,42,,42.36441,47.270869,Dargwa,,Daghestan,,1248.07
1763,,Троч-Махи,Троч-Махи,,,19,,,,,,,,
1765,Urtsamakhi,разв.Урцамахи,разв.Урцамахи,,46,71,,42.34854,47.276792,Dargwa,,Daghestan,,1373.58
1767,,Ципко-Махи,Ципко-Махи,,,18,,,,,,,,
1769,,Цугур-Махи,Цугур-Махи,,,24,,,,,,,,
1771,,разв.Чогнимахи,разв.Чогнимахи,138,134,61,,,,,,,,
1773,,разв.Чалаймахи,разв.Чалаймахи,,,13,,,,,,,,
1775,Nizhnie Ubekimakhi,Нижний Убекимахи,Нижний Убекимахи,226,243,94,802,42.392787,47.20548,Dargwa,,Daghestan,,1057.58
1777,,Амма-Лухи-Махи,Амма-Лухи-Махи,,,21,,,,,,,,
1779,,Бурхи-Махи,Бурхи-Махи,,,46,,,,,,,,
1781,,Гамза-Махи,Гамза-Махи,,,13,,,,,,,,
1783,,Дауда,Дауда,,,24,,,,,,,,
1785,,Унгу-Махи,Унгу-Махи,,,19,,,,,,,,
1787,,разв.Цитамахи,разв.Цитамахи,,,47,,,,,,,,
1789,,Чарта-Махи,Чарта-Махи,,,11,,,,,,,,
1791,,Шалкал-Махи,Шалкал-Махи,,,29,,,,,,,,
1793,Ulluaya,Уллуая,Уллуая,1376,1249,1290,5961,42.3747,47.3756,Dargwa,,Daghestan,,1425.07
1795,,Арча-Махи,Арча-Махи,,,21,,,,,,,,
1797,Suleybakent,Сулейбакент,Сулейбакент,560,563,465,1255,42.35785,47.37355,Dargwa,,Daghestan,,1445.68
1799,Karlabko,Карлабко,Карлабко,716,702,696,2686,42.3542,47.3967,Dargwa,,Daghestan,,1491.34
1801,Ulluchara,Уллучара,Уллучара,839,754,743,391,42.20267,47.27463,Lak,,Daghestan,,1828.91
1803,,Акаль-Махи,Акаль-Махи,,,5,,,,,,,,
1805,,Хананиль-Махи,Хананиль-Махи,,,5,,,,,,,,
1807,Urari,Урари,Урари,691,496,472,846,42.0997,47.4569,Dargwa,,Daghestan,,1442.5
1809,Ayatsuri,Аяцури,Аяцури,129,129,82,151,42.07354,47.45121,Dargwa,,Daghestan,,1704.48
1811,Butulta,Бутулта,Бутулта,81,68,70,40,42.07426,47.44048,Dargwa,,Daghestan,,1560.36
1813,Karkatsi,Каркаци,Каркаци,70,50,53,68,42.08389,47.46694,Dargwa,,Daghestan,,1384.13
1815,,Куркимахи,Куркимахи,133,139,105,126,,,,,,,
1817,,Мусклимахи,Мусклимахи,71,70,46,,,,,,,,
1819,Sur-Surbachi,Сур-Сурбачи,Сур-Сурбачи,136,114,133,171,42.02667,47.49157,Dargwa,,Daghestan,,1896.61
1821,Turakarimakhi,Туракаримахи,Туракаримахи,80,68,51,141,42.1,47.46667,Dargwa,,Daghestan,,1337.34
1823,Urkutamakhi Pervaya,Уркутамахи-1,Уркутамахи-1,,52,77,161,42.07093,47.52058,Dargwa,,Daghestan,,1744.47
1825,Urkutamakhi 2-aya,Уркутамахи-2,Уркутамахи-2,109,60,73,185,42.06667,47.53333,Dargwa,,Daghestan,,1676.84
1827,Urkhnischa,Урхнища,Урхнища,,143,156,291,42.08278,47.50306,Dargwa,,Daghestan,,1637.57
1829,,Нижние Цурмиямахи,Нижние Цурмиямахи,,,49,,,,,,,,
1831,Urakhi,Урахи,Урахи,2768,1573,1476,671,42.3347,47.5953,Dargwa,,Daghestan,,1046.33
1833,Aymaumakhi,Аймаумахи,Аймаумахи,,190,356,255,42.363756,47.575203,Dargwa,,Daghestan,,1175.52
1835,,Ая-Бурхи-Махи,Ая-Бурхи-Махи,,83,142,,,,,,,,
1837,Ayalizimakhi,Аялизимахи,Аялизимахи,422,399,283,702,42.37684,47.60746,Dargwa,,Daghestan,,1055.12
1839,Ayamakhi,Аямахи,Аямахи,302,191,290,,42.40528,47.5725,Dargwa,,Daghestan,,1096.87
1841,,Буцра-Махи,Буцра-Махи,,96,182,,,,,,,,
1843,,Ванашимахи,Ванашимахи,465,434,537,760,,,,,,,
1845,,Гигац,Гигац,,,20,,,,,,,,
1847,,Гум-Махи,Гум-Махи,,,138,,,,,,,,
1849,,Завгуреланлала,Завгуреланлала,,,62,,,,,,,,
1851,Khabkaymakhi,Хабкаймахи,Хабкаймахи,,93,138,81,42.35782,47.59091,Dargwa,,Daghestan,,1118.27
1853,,Киндау,Киндау,,,40,,,,,,,,
1855,,Колнцау-Махи,Колнцау-Махи,,,38,,,,,,,,
1857,,Кула-Кади,Кула-Кади,,,6,,,,,,,,
1859,,Кула-Махи,Кула-Махи,,200,234,,,,,,,,
1861,Verkhnie Makhargimakhi,Верхнее Махаргимахи,Верхнее Махаргимахи,618,334,216,93,42.34665,47.62254,Dargwa,,Daghestan,,1118.05
1863,Nizhnie Makhargimakhi,Нижнее Махаргимахи,Нижнее Махаргимахи,,214,316,330,42.33047,47.63788,Dargwa,,Daghestan,,952.41
1865,,Мулин,Мулин,,,50,,,,,,,,
1867,,ур.Сугурбашимахи,ур.Сугурбашимахи,169,197,135,,,,,,,,
1869,Chabazimakhi,Чабазимахи,Чабазимахи,,140,179,181,42.360297,47.570316,Dargwa,,Daghestan,,1236.21
1871,,Чахилиши-Махи,Чахилиши-Махи,,,61,,,,,,,,
1873,,Чиквалла-Дуланлала,Чиквалла-Дуланлала,,,92,,,,,,,,
1875,Uragi,Ураги,Ураги,334,326,305,318,42.06914,47.569377,Dargwa,,Daghestan,,1538.46
1877,,ур.Хулакади,ур.Хулакади,,,14,,,,,,,,
1879,Usisha,Усиша,Усиша,2745,2708,2632,3931,42.2511,47.3928,Dargwa,,Daghestan,,1484.07
1881,Zil'mukmakhi,Зильмукмахи,Зильмукмахи,193,223,244,328,42.28483,47.3958,Dargwa,,Daghestan,,1409.15
1883,Khadzhalmakhi,Хаджалмахи,Хаджалмахи,1647,1750,1698,6188,42.4186,47.1817,Dargwa,,Daghestan,,946.8
1885,Khakhita,Хахита,Хахита,700,676,623,1164,42.4667,47.2642,Avar,,Daghestan,,1365.17
1887,Khurshni,Хуршни,Хуршни,560,540,453,327,42.14036,47.48966,Dargwa,,Daghestan,,1572.69
1889,,ур.Милица,ур.Милица,,,12,,,,,,,,
1891,Tsizgari,Цизгари,Цизгари,388,350,231,352,42.21963,47.64768,Dargwa,,Daghestan,,1387.14
1893,Tsugni,Цугни,Цугни,736,714,539,751,42.107276,47.400902,Dargwa,,Daghestan,,1567.69
1895,Gulebki,Гулебки,Гулебки,259,255,209,386,42.11181,47.39688,Dargwa,,Daghestan,,1574.16
1897,Urgani,Ургани,Ургани,273,258,232,406,42.13638,47.36146,Dargwa,,Daghestan,,1785.94
1899,Tsudakhar,Цудахар,Цудахар,1457,1439,1546,1354,42.3425,47.1606,Dargwa,,Daghestan,,1047.66
1901,Nizhnie Arshi,Нижний Арши,Нижний Арши,,223,224,550,42.389598,47.141386,Dargwa,,Daghestan,,1164
1903,,ур. Верх. Буртанимахи,ур. Верх. Буртанимахи,,,69,,,,,,,,
1905,Burtanimakhi,Буртанимахи,Буртанимахи,,314,242,300,42.37097,47.14988,Dargwa,,Daghestan,,1071.84
1907,,Карекадани,Карекадани,1107,165,259,730,,,,,,,
1909,Karekadani,Карекадани,Карекадани,,248,261,,42.35747,47.13098,Dargwa,,Daghestan,,1387.21
1911,,ур.Косумтемахи,ур.Косумтемахи,,160,85,,,,,,,,
1913,Kulibukhna,Кулибухна,Кулибухна,356,353,373,407,42.315839,47.18495,Dargwa,,Daghestan,,1276.86
1915,,Нарчебе,Нарчебе,,,49,,,,,,,,
1917,,Унклати,Унклати,,,40,,,,,,,,
1919,Khadzhalte,Хаджалте,Хаджалте,,132,157,28,42.33374,47.15589,Dargwa,,Daghestan,,1097.84
1921,Tsurai,Цураи,Цураи,421,395,259,190,42.23577,47.65819,Dargwa,,Daghestan,,1347.54
1923,Nizhnie Chugli,Нижнее Чугли,Нижнее Чугли,583,559,702,1534,42.46318,47.29733,Avar,,Daghestan,,1253.54
1925,Chuni,Чуни,Чуни,412,405,342,882,42.34832,47.30303,Avar,,Daghestan,,1375.91
1927,Kuknamakhi,разв.Кукнамахи,разв.Кукнамахи,,,51,,42.359775,47.286853,Dargwa,,Daghestan,,1295.29
1929,Shukty,Шукты,Шукты,567,570,653,614,42.22488,47.30349,Dargwa,,Daghestan,,1663.49
1931,Ebdalaya,Эбдалая,Эбдалая,612,589,534,816,42.3683,47.3433,Dargwa,,Daghestan,,1392.82
1933,,Бархакент,Бархакент,106,105,45,,,,,,,,
1935,Khasakent,Хасакент,Хасакент,338,343,289,360,42.37754,47.34265,Dargwa,,Daghestan,,1371.29
1937,Susakent,Сусакент,Сусакент,176,170,136,429,42.36361,47.35248,Dargwa,,Daghestan,,1403.68
1939,Tazirkent,Тазиркент,Тазиркент,275,281,161,,42.35863,47.3576,Dargwa,,Daghestan,,1433.25
1941,Tagirkent,Тагиркент,Тагиркент,315,299,158,478,42.3827,47.33326,Dargwa,,Daghestan,,1340.83
1943,Tsukhta,Цухта,Цухта,431,287,273,1557,42.34352,47.32396,Dargwa,,Daghestan,,1452.48
1945,,Нижняя Цухта,Нижняя Цухта,,118,159,,,,,,,,
1947,Belidzhi,Белиджи (село),Белиджи (село),517,629,439,4282,41.870833,48.388611,Lezgian,,Daghestan,,21.18
1949,Avadan,Авадан,Авадан,149,145,91,2855,41.93376,48.33858,Lezgian,,Daghestan,,6.3
1951,,,Белиджи (пгт),,,168,12238,,,,,,,
1953,,,Белиджи № 6,,,9,,,,,,,,
1955,,,Будка № 202,,,20,,,,,,,,
1957,,,Будка № 211,,,8,,,,,,,,
1959,Mollakent,Моллакент,Моллакент,40,36,79,1020,41.9233,48.3864,Lezgian,,Daghestan,,
1961,,Моллахалил,Моллахалил,55,57,87,,,,,,,,
1963,Nyugdi,Нюгди,Нюгди,493,521,278,1763,41.85872,48.43455,Lezgian,,Daghestan,,17.75
1965,,,турбаза возле устья р.Рубас,,,34,,,,,,,,
1967,,,Рубас № 4,,,107,,,,,,,,
1969,,,Рубас № 5,,,37,,,,,,,,
1971,,Русло реки Гюрченчай,Русло реки Гюрченчай,,,50,,,,,,,,
1973,Berikey,Берикей,Берикей,875,850,922,3027,42.2228,48.0611,North Azerbaijani,,Daghestan,,28.95
1975,,,ст.Берикей,,,57,,,,,,,,
1977,,,Берикей,,,21,,,,,,,,
1979,,,Берикей № 1,,,64,,,,,,,,
1981,,,Берикей № 2,,,85,,,,,,,,
1983,,,Берикей № 3,,,139,,,,,,,,
1985,,,Берикей № 4,,,33,,,,,,,,
1987,Velikent,Великент,Великент,967,975,1292,4203,42.1875,48.0647,North Azerbaijani,,Daghestan,,55.12
1989,,Волкова,Волкова,,,5,,,,,,,,
1991,Gedzhukh,,Геджух,,,118,6829,42.1247,48.0661,Dargwa,,Daghestan,,90.52
1993,,Красный Труд,Красный Труд,,,99,,,,,,,,
1995,,,Мамедкала,,,78,11030,,,,,,,
1997,Kala,Кала,Кала,160,167,154,1751,42.1464,48.1634,North Azerbaijani,,Daghestan,,14.75
1999,,,Михайловка,,,62,,,,,,,,
2001,Salik,Салик,Салик,161,71,236,1766,42.17335,48.08635,North Azerbaijani,,Daghestan,,42.57
2003,,ур.Гимейди,ур.Гимейди,830,834,637,,,,,,,,
2005,Darvag,Дарваг,Дарваг,961,968,1223,2889,42.022285,48.065912,North Azerbaijani,,Daghestan,,355.03
2007,Delichoban,Деличобан,Деличобан,521,487,485,2216,42.19877,48.09467,North Azerbaijani,,Daghestan,,19.79
2009,,,Огни,,,84,,,,,,,,
2011,,,Перво-Майский № 1,,,29,,,,,,,,
2013,,,Перво-Майский № 2,,,33,,,,,,,,
2015,,,Перво-Майский № 3,,,78,,,,,,,,
2017,,,Перво-Майский № 4,,,16,,,,,,,,
2019,,,Перво-Майский № 5,,,13,,,,,,,,
2021,Dzhalgan,Джалган,Джалган,271,272,442,724,42.02454,48.26224,North Azerbaijani,,Daghestan,,527.82
2023,Dzhemikent,Джемикент,Джемикент,687,647,750,2555,42.23575,48.04114,North Azerbaijani,,Daghestan,,33.74
2025,,,Ж. д. будка 973 вер.,,,23,,,,,,,,
2027,,Мамай-Кент,Мамай-Кент,,,68,,,,,,,,
2029,Ulluterkeme,Уллу-Теркеме,Уллу-Теркеме,159,152,298,1597,42.21511,48.00644,North Azerbaijani,,Daghestan,,74.56
2031,Zid'yan,Зидьян,Зидьян,533,532,574,150,42.050776,48.142558,North Azerbaijani,,Daghestan,,481.72
2033,,разв.Бильгади,разв.Бильгади,232,249,162,,,,,,,,
2035,Bil'gadi,Бильгади,Бильгади,,,176,640,42.08581,48.13462,North Azerbaijani,,Daghestan,,198.38
2037,Zid'yan-Kazmalyar,Зидьян-Казмаляр,Зидьян-Казмаляр,,,332,977,42.07957,48.15655,North Azerbaijani,,Daghestan,,203.87
2039,,разв.Кемах,разв.Кемах,374,383,426,,,,,,,,
2041,Kayakent,Каякент,Каякент,2118,2050,2166,11145,42.3847,47.9044,Kumyk,,Daghestan,,171.42
2043,Novokayakent,,Новокаякент,,,246,5127,42.3922,47.9878,Kumyk,,Daghestan,,
2045,,,Нефтян пром.,,,18,,,,,,,,
2047,,,ст.Папас,,,85,,,,,,,,
2049,,,рыбацкий посёлок,,,128,,,,,,,,
2051,,,рыбацкий посёлок,,,92,,,,,,,,
2053,Kullar,Куллар,Куллар,107,122,167,2314,41.8364,48.3878,Lezgian,,Daghestan,,53
2055,Aglobi,Аглоби,Аглоби,139,145,246,2343,41.90152,48.35017,Lezgian,,Daghestan,,17.49
2057,,,Араблинское,,,39,,,,,,,,
2059,Arablinskoe,,Араблинское,,,34,2175,41.9675,48.3303,Lezgian,,Daghestan,,
2061,,,Араблинский 1015 вер.,,,4,,,,,,,,
2063,,,Араблинский 1017 вер.,,,7,,,,,,,,
2065,,,Араблинский 1005 вер.,,,8,,,,,,,,
2067,,,Араблинский 1007 вер.,,,11,,,,,,,,
2069,,ур.Гаджият,ур.Гаджият,,,6,,,,,,,,
2071,,,Сад Араблин,,,1,,,,,,,,
2073,,,Сад Мардановой,,,2,,,,,,,,
2075,Rubas,Рубас,Рубас,189,186,312,3099,41.895476,48.329618,North Azerbaijani,,Daghestan,,27.37
2077,,Хозаян,Хозаян,,,3,,,,,,,,
2079,Maraga,Марага,Марага,1791,1812,1941,1794,41.9633,48.1208,North Azerbaijani,,Daghestan,,444.73
2081,Mitagi,Митаги,Митаги,769,781,551,648,42.01736,48.19083,North Azerbaijani,,Daghestan,,643.21
2083,Mitagi-Kazmalyar,Митаги-Казмаляр,Митаги-Казмаляр,,,186,1177,42.035494,48.204804,North Azerbaijani,,Daghestan,,296.66
2085,,Митаги-Казмаляр,Митаги-Казмаляр,,,90,,,,,,,,
2087,Sabnova,Сабнова,Сабнова,,,537,3823,42.063172,48.254419,North Azerbaijani,,Daghestan,,283.75
2089,Mugarty,Мугарты,Мугарты,934,953,880,1616,41.9947,48.1614,North Azerbaijani,,Daghestan,,442.19
2091,Padar,Падар,Падар,292,289,365,2265,42.19939,48.05179,North Azerbaijani,,Daghestan,,56.56
2093,Rukel',Рукель,Рукель,1162,1212,1109,2742,41.9881,48.2253,North Azerbaijani,,Daghestan,,596.45
2095,,Солёное озеро,Солёное озеро,,,2,,,,,,,,
2097,Tatlyar,Татляр,Татляр,341,342,440,1510,42.2003,48.0269,North Azerbaijani,,Daghestan,,68.12
2099,,Карадаглы,Карадаглы,131,132,182,788,,,,,,,
2101,Alkhadzhakent,Алхаджакент,Алхаджакент,2034,2039,1323,2411,42.340016,47.79177,Kumyk,,Daghestan,,563.32
2103,Gasha,,Гаша,174,169,81,54,42.33592,47.83067,Kumyk,,Daghestan,,353.79
2105,Arak,Арак,Арак,318,322,315,462,41.96112,47.98984,Tabasaran,,Daghestan,,726.89
2107,Lidzhe,Лидже,Лидже,252,261,314,245,41.97245,47.98057,Tabasaran,,Daghestan,,698.63
2109,Tsukhdyg,Цухтыг,Цухтыг,259,262,346,653,41.94056,47.98139,Tabasaran,,Daghestan,,964.92
2111,Arkit,Аркит,Аркит,359,404,422,608,41.947308,48.014025,Tabasaran,,Daghestan,,651.93
2113,Rushul',Рушуль,Рушуль,297,316,339,455,41.9567,48.01232,Tabasaran,,Daghestan,,664.76
2115,Ushnyug,Ушнюг,Ушнюг,176,187,236,272,41.92639,48.00306,Tabasaran,,Daghestan,,897.71
2117,Firgil',Фиргиль,Фиргиль,147,175,236,397,41.92507,48.02587,Tabasaran,,Daghestan,,662.67
2119,Tsanak,Цанак,Цанак,413,464,468,909,41.94266,48.04137,North Azerbaijani,,Daghestan,,524.41
2121,Varsit,Варсит,Варсит,278,266,235,243,41.992062,47.82111,Dargwa,,Daghestan,,1151.57
2123,Bazhluk,Бажлук,Бажлук,247,251,284,41,42.040295,47.808314,Dargwa,,Daghestan,,1167.46
2125,,ур.Оглавкент,ур.Оглавкент,49,42,53,,,,,,,,
2127,Surkhavkent,Сурхавкент,Сурхавкент,45,40,73,42,41.983999,47.827576,Dargwa,,Daghestan,,1166.09
2129,,разв.Галинта,разв.Галинта,87,91,72,,,,,,,,
2131,Kuzhnik,Кужник,Кужник,349,343,366,846,41.95549,47.82231,Tabasaran,,Daghestan,,1191.53
2133,,разв.Гулли,разв.Гулли,138,117,116,,,,,,,,
2135,Kyurek,Кюрек,Кюрек,83,67,52,93,41.95258,47.85934,Tabasaran,,Daghestan,,1048.42
2137,Uluz,Улуз,Улуз,166,166,209,403,41.95721,47.83714,Tabasaran,,Daghestan,,1090.56
2139,Urzig,Урзиг,Урзиг,170,156,180,348,41.94811,47.84992,Tabasaran,,Daghestan,,1092.01
2141,,разв.Урсиг,разв.Урсиг,108,103,115,,,,,,,,
2143,Kharag,Хараг,Хараг,193,189,177,499,41.945423,47.825106,Tabasaran,,Daghestan,,1112.77
2145,Churdaf,Чурдаф,Чурдаф,175,173,182,444,41.95272,47.8636,Tabasaran,,Daghestan,,992
2147,Shile,Шиле,Шиле,152,147,155,208,41.94774,47.82939,Tabasaran,,Daghestan,,1068.66
2149,Dzhavankent,Джаванкент,Джаванкент,1168,1177,760,1013,42.26265,47.80983,Kumyk,,Daghestan,,358.45
2151,Bashlykent,Башлыкент,Башлыкент,1547,1610,1477,3230,42.2597,47.8439,Kumyk,,Daghestan,,280.57
2153,Dzhibakhni,Джибахни,Джибахни,735,740,567,1200,42.06051,47.90847,Dargwa,,Daghestan,,409.11
2155,Dzhavgat,Джавгат,Джавгат,466,470,579,2185,42.0506,47.9375,Dargwa,,Daghestan,,365.5
2157,Kulegu,Кулегу,Кулегу,116,102,107,155,42.07003,47.88401,Dargwa,,Daghestan,,543.91
2159,Mashaty,Машаты,Машаты,271,283,286,185,42.05398,47.88286,Dargwa,,Daghestan,,635
2161,Ruka,Рука,Рука,319,315,365,959,42.04751,47.92312,Dargwa,,Daghestan,,422.94
2163,Khadagi,Хадаги,Хадаги,131,124,155,182,42.08067,47.89726,Dargwa,,Daghestan,,388.71
2165,Dibgashi,Дибгаши,Дибгаши,532,527,450,1130,42.1617,47.6944,Dargwa,,Daghestan,,1104.78
2167,Buskri,Бускри,Бускри,686,691,702,686,42.17359,47.66673,Dargwa,,Daghestan,,1369.29
2169,Surkhachi,Сурхачи,Сурхачи,400,405,312,452,42.16143,47.74083,Dargwa,,Daghestan,,1042.18
2171,Iraki,Ираки,Ираки,286,299,251,394,42.16405,47.71739,Dargwa,,Daghestan,,1105.35
2173,Kalkni,Калкни,Калкни,592,587,488,1316,42.17732,47.70499,Dargwa,,Daghestan,,1160.24
2175,Gunakari,Гунакари,Гунакари,271,275,201,371,42.17776,47.69262,Dargwa,,Daghestan,,1168.73
2177,Dyubek,Дюбек,Дюбек,878,818,1041,1893,42.0208,47.969528,Tabasaran,,Daghestan,,450.74
2179,Khapil',Хапиль,Хапиль,258,279,328,1031,41.98722,47.97731,Tabasaran,,Daghestan,,558.33
2181,Khustil',Хустиль,Хустиль,208,223,310,593,42.00335,47.93489,Tabasaran,,Daghestan,,765.48
2183,Yagdyg,Ягдыг,Ягдыг,338,360,354,990,41.980115,47.970578,Tabasaran,,Daghestan,,541.3
2185,Yersi,Ерси,Ерси,735,750,1197,1805,42.018844,48.012897,North Azerbaijani,,Daghestan,,581.01
2187,Zil'bachi,Зильбачи,Зильбачи,325,339,397,941,42.139973,47.717838,Dargwa,,Daghestan,,1311.98
2189,Iragi,Ираги,Ираги,352,353,361,843,42.11889,47.75336,Dargwa,,Daghestan,,850.66
2191,Kudagu,Кудагу,Кудагу,152,148,248,564,42.13322,47.73006,Dargwa,,Daghestan,,1117.61
2193,Zil',Зиль,Зиль,346,345,433,454,41.99616,48.03356,North Azerbaijani,,Daghestan,,587.22
2195,Tatil',Татиль,Татиль,181,181,361,1128,41.99269,47.98826,Tabasaran,,Daghestan,,621.19
2197,Itsari,Ицари,Ицари,535,563,639,223,41.99733,47.5833,Dargwa,,Daghestan,,1436.43
2199,,Чахрижи,Чахрижи,160,161,357,,,,,,,,
2201,,Санакари,Санакари,128,133,178,,,,,,,,
2203,,Шари,Шари,313,316,407,19,,,,,,,
2205,Kapkaykent,Капкайкент,Капкайкент,1411,1413,920,1020,42.248157,47.798984,Kumyk,,Daghestan,,371.84
2207,,разв.Каракурош,разв.Каракурош,264,269,287,,,,,,,,
2209,Karatsan,Карацан,Карацан,725,689,754,1162,42.0886,47.8683,Dargwa,,Daghestan,,514.28
2211,Barshamay,Баршамай,Баршамай,1070,1040,883,2112,42.11176,47.85143,Dargwa,,Daghestan,,555.5
2213,Gaziya,Газия,Газия,171,166,90,386,42.085935,47.817633,Dargwa,,Daghestan,,516.37
2215,Kartalay,Карталай,Карталай,445,429,246,599,42.08709,47.85834,Dargwa,,Daghestan,,555.62
2217,Dzhinabi,Джинаби,Джинаби,385,342,338,706,42.070864,47.860318,Dargwa,,Daghestan,,613.61
2219,Kirki,Кирки,Кирки,423,398,434,175,41.96917,47.81333,Dargwa,,Daghestan,,1230.93
2221,,разв.Бартуга,разв.Бартуга,91,88,75,,,,,,,,
2223,,разв.Барша,разв.Барша,123,110,118,,,,,,,,
2225,,разв.Кираж,разв.Кираж,44,44,86,,,,,,,,
2227,Turaga,Турага,Турага,138,137,147,56,41.96152,47.80188,Dargwa,,Daghestan,,1187.58
2229,,разв.Ургая,разв.Ургая,174,164,119,,,,,,,,
2231,Shilansha,Шиланша,Шиланша,104,109,99,81,41.97502,47.78696,Dargwa,,Daghestan,,1238.21
2233,Kirtsik,Кирцик,Кирцик,316,305,253,92,42.00129,47.84068,Dargwa,,Daghestan,,1194.65
2235,,Антиль,Антиль,133,132,139,,,,,,,,
2237,Pilyaki,Пиляки,Пиляки,189,190,209,29,42.00537,47.85667,Dargwa,,Daghestan,,1057.6
2239,Shuragat,Шурагат,Шурагат,63,61,80,73,41.99186,47.83994,Dargwa,,Daghestan,,1166.86
2241,Kichi-Gamri,Кичи-Гамри,Кичи-Гамри,710,732,563,1696,42.3125,47.7106,Dargwa,,Daghestan,,593.82
2243,Mamaaul,Мамааул,Мамааул,233,237,220,615,42.31709,47.75237,Dargwa,,Daghestan,,510.83
2245,Kischa,Кища,Кища,1803,1789,431,3030,42.17677,47.58117,Dargwa,,Daghestan,,1319.17
2247,,Нижняя Кища,Нижняя Кища,,,243,,,,,,,,
2249,Kubachi,Кубачи,Кубачи,2232,2241,1733,3055,42.0856,47.6031,Dargwa,,Daghestan,,1636.75
2251,Kulidzha,Кулиджа,Кулиджа,259,258,295,403,42.054682,47.772754,Dargwa,,Daghestan,,927.43
2253,,Гурмиша,Гурмиша,85,82,106,,,,,,,,
2255,Dzhigiya,Джигия,Джигия,116,120,129,289,42.06139,47.79597,Dargwa,,Daghestan,,621.14
2257,Duregi,Дуреги,Дуреги,287,279,335,270,42.03585,47.76541,Dargwa,,Daghestan,,1062.16
2259,Mizhigli,Мижигли,Мижигли,202,188,195,383,42.0697,47.79989,Dargwa,,Daghestan,,593.98
2261,Shilyagi,Шиляги,Шиляги,291,284,297,486,42.0486,47.7903,Dargwa,,Daghestan,,659.23
2263,Khungiya,Хунгия,Хунгия,205,199,243,364,42.09321,47.80518,Dargwa,,Daghestan,,632.36
2265,Gumi,Гуми,Гуми,248,256,251,261,41.894319,47.868304,Tabasaran,,Daghestan,,1087.39
2267,Afna,Афна,Афна,118,122,97,193,41.902075,47.861413,Tabasaran,,Daghestan,,1077.35
2269,,разв.Гарик,разв.Гарик,30,33,58,,,,,,,,
2271,Guvlig,Гувлиг,Гувлиг,141,149,122,487,41.91824,47.85213,Tabasaran,,Daghestan,,1191.64
2273,,разв.Джагрик,разв.Джагрик,23,22,22,,,,,,,,
2275,,разв.Зертиль,разв.Зертиль,29,31,50,,,,,,,,
2277,,разв.Кюледжик,разв.Кюледжик,35,37,46,,,,,,,,
2279,Kyuryag,Кюряг,Кюряг,317,341,291,452,41.907094,47.853636,Tabasaran,,Daghestan,,1140.64
2281,Sertil',Сертиль,Сертиль,149,152,166,399,41.92531,47.86522,Tabasaran,,Daghestan,,1226.26
2283,Sikukh,Сикух,Сикух,144,144,109,199,41.90457,47.84596,Tabasaran,,Daghestan,,1237.95
2285,,разв.Хак,разв.Хак,16,16,21,,,,,,,,
2287,Khanak,Ханак,Ханак,131,141,123,277,41.91373,47.86645,Tabasaran,,Daghestan,,1083.37
2289,,разв.Гярих,разв.Гярих,76,75,79,,,,,,,,
2291,,Хюртиль,Хюртиль,88,91,76,,,,,,,,
2293,Gurik,Гурик,Гурик,358,266,412,804,41.962788,47.919474,Tabasaran,,Daghestan,,733.33
2295,Akka,Акка,Акка,122,124,134,599,41.92686,47.9297,Tabasaran,,Daghestan,,741.26
2295,Akka,Акка,Акка,122,124,134,599,41.92686,47.9297,Tabasaran,,Daghestan,,741.26
2297,,Гюгряг,Гюгряг,155,152,145,268,,,,,,,
2299,Dagni,Дагни,Дагни,160,160,166,313,41.931594,47.911846,Tabasaran,,Daghestan,,835.61
2301,Dzhul'dzhag,Джульджаг,Джульджаг,180,180,163,715,41.95485,47.88933,Tabasaran,,Daghestan,,998.5
2303,Dzhul'dzhinif,Джульджиниф,Джульджиниф,70,62,68,197,41.957235,47.912939,Tabasaran,,Daghestan,,765.84
2305,Yergyunyag,Ергюняг,Ергюняг,62,59,64,60,41.96295,47.89501,Tabasaran,,Daghestan,,956.63
2307,Gisik,Гисик,Гисик,67,73,82,293,41.94475,47.91451,Tabasaran,,Daghestan,,912.67
2309,Gisik,Гисик,Гисик,95,100,85,,41.94475,47.91451,Tabasaran,,Daghestan,,912.67
2311,Kuvag,Куваг,Куваг,98,98,103,99,41.926587,47.90245,Tabasaran,,Daghestan,,1047.1
2313,Kulif,Кулиф,Кулиф,128,133,165,624,41.95955,47.88391,Tabasaran,,Daghestan,,1003.83
2315,Lyakhe,Ляхе,Ляхе,181,184,169,248,41.952293,47.914701,Tabasaran,,Daghestan,,809.83
2317,Kharkhni,Хархни,Хархни,72,80,81,101,41.939561,47.880088,Tabasaran,,Daghestan,,1184.3
2319,Yurgulig,Юргулиг,Юргулиг,93,101,91,296,41.962775,47.896658,Tabasaran,,Daghestan,,939.12
2321,Lischa,Лища,Лища,345,309,339,111,42.072834,47.740462,Dargwa,,Daghestan,,1181.15
2323,,разв.Абдушки,разв.Абдушки,279,261,249,,,,,,,,
2325,,разв.Биркли,разв.Биркли,110,108,155,,,,,,,,
2327,Gul'dy,Гульды,Гульды,173,167,151,145,42.07113,47.68936,Dargwa,,Daghestan,,1322.78
2329,Daknisa,Дакниса,Дакниса,200,201,208,436,42.08758,47.72711,Dargwa,,Daghestan,,876.82
2331,Dzhirabachi,Джирабачи,Джирабачи,470,470,451,531,42.09091,47.73513,Dargwa,,Daghestan,,939.81
2333,Surgiya,Сургия,Сургия,166,164,229,182,42.077112,47.717301,Dargwa,,Daghestan,,1104.37
2335,Madzhalis,Маджалис,Маджалис,1481,1422,1021,6820,42.1217,47.8333,Dargwa,,Daghestan,,408.49
2337,Akhmedkent,Ахмедкент,Ахмедкент,611,613,715,1026,42.12036,47.81047,Dargwa,,Daghestan,,678.58
2339,,разв.Дарща,разв.Дарща,102,110,209,,,,,,,,
2341,,Евр. слободка,Евр. слободка,,,306,,,,,,,,
2343,Irichi,Иричи,Иричи,121,121,90,8,42.13548,47.79158,Dargwa,,Daghestan,,882.54
2345,Sanchi,Санчи,Санчи,606,598,609,1797,42.13244,47.82243,Dargwa,,Daghestan,,474.7
2347,Chakhdikna,Чахдикна,Чахдикна,158,166,151,217,42.14116,47.76044,Dargwa,,Daghestan,,1000.97
2349,Myurego,Мюрего,Мюрего,2760,2678,2351,4225,42.4042,47.6894,Dargwa,,Daghestan,,532.37
2351,,разв. Сулевкенд,разв. Сулевкенд,581,573,569,,,,,,,,
2353,Amuzgi,Амузги,Амузги,210,212,201,,42.068009,47.597806,Dargwa,,Daghestan,,1505.87
2355,Shiri (Shari),Шари,Шари,188,192,237,83,42.060627,47.589895,Dargwa,,Daghestan,,1440.25
2357,,разв.Тама,разв.Тама,341,342,407,,,,,,,,
2359,Adaga,Адага,Адага,428,418,432,162,42.00972,47.71357,Dargwa,,Daghestan,,1109.09
2361,,разв.Инаки,разв.Инаки,104,86,117,,,,,,,,
2363,,разв.Мирсия,разв.Мирсия,92,84,88,,,,,,,,
2365,,разв.Мисарга,разв.Мисарга,91,99,99,,,,,,,,
2367,,Сулипа,Сулипа,46,46,103,,,,,,,,
2369,,разв.Уршеги,разв.Уршеги,103,113,129,,,,,,,,
2371,,разв.Цибарчи,разв.Цибарчи,87,85,100,,,,,,,,
2373,Trisanchi,Трисанчи,Трисанчи,560,575,609,1521,42.118091,47.70559,Dargwa,,Daghestan,,949.14
2375,Dibgalik,Дибгалик,Дибгалик,359,367,357,557,42.120363,47.652521,Dargwa,,Daghestan,,1065.45
2377,Zubanchi,Зубанчи,Зубанчи,616,622,664,1639,42.13309,47.70417,Dargwa,,Daghestan,,1077.52
2379,Dzhurmachi,Джурмачи,Джурмачи,223,231,256,152,42.09049,47.69572,Dargwa,,Daghestan,,951.66
2381,Urkarakh,Уркарах,Уркарах,1978,1962,2376,4392,42.1606,47.6339,Dargwa,,Daghestan,,1309.88
2383,Chishili,Чишили,Чишили,312,318,380,553,42.15228,47.66839,Dargwa,,Daghestan,,1225.42
2385,Usemikent,Усемикент,Усемикент,637,618,591,1996,42.3836,47.8681,Kumyk,,Daghestan,,267.35
2387,,Учбулак,Учбулак,,,54,,,,,,,,
2389,Utamysh,Утамыш,Утамыш,2678,2485,2015,3631,42.4047,47.7492,Kumyk,,Daghestan,,336.16
2391,Khalag,Халаг,Халаг,420,468,380,674,41.90551,47.88935,Tabasaran,,Daghestan,,1090.77
2393,Bukhnag,Бухнаг,Бухнаг,91,93,76,195,41.910587,47.872994,Tabasaran,,Daghestan,,999.49
2395,,разв.Думурхиль,разв.Думурхиль,271,284,258,,,,,,,,
2397,,разв.Сулантиль,разв.Сулантиль,79,74,93,,,,,,,,
2399,Gasikh,Гасик,Гасик,160,164,173,404,41.92398,47.8847,Tabasaran,,Daghestan,,1148.42
2401,,разв.Хурциль,разв.Хурциль,40,43,35,,,,,,,,
2403,Khanag,Ханаг,Ханаг,263,297,283,627,41.97444,47.90333,Tabasaran,,Daghestan,,724.4
2405,Rugudzh,Ругудж,Ругудж,367,372,315,812,41.976755,47.89161,Tabasaran,,Daghestan,,770.15
2407,Tsantil',Цантиль,Цантиль,131,136,134,284,41.95508,47.86271,Tabasaran,,Daghestan,,985.13
2409,Kharbuk,Харбук,Харбук,1646,1714,1448,1528,42.158768,47.530832,Dargwa,,Daghestan,,1481.17
2411,Shulerchi,Шулерчи,Шулерчи,112,111,154,,42.13744,47.56335,Dargwa,,Daghestan,,1102.84
2413,Kheli,Хели,Хели,171,180,438,574,41.967458,48.058177,North Azerbaijani,,Daghestan,,587.05
2415,Yekrag,Екраг,Екраг,128,141,160,156,41.967212,48.044297,North Azerbaijani,,Daghestan,,522.48
2417,Khurik,Хурик,Хурик,877,831,840,2534,41.98583,47.89861,Tabasaran,,Daghestan,,747.47
2419,,Хархуни,Хархуни,,,155,,,,,,,,
2421,Pilig,Пилиг,Пилиг,407,406,371,760,41.97418,47.8687,Tabasaran,,Daghestan,,1037.45
2423,Khuchni,Хучни,Хучни,509,515,384,3232,41.947717,47.945961,Tabasaran,,Daghestan,,643.62
2425,,Вартатиль,Вартатиль,146,155,154,,,,,,,,
2427,Vechrik,Вечрик,Вечрик,117,122,113,288,41.9171,47.96184,Tabasaran,,Daghestan,,1021.34
2429,Dzhugdil',Джугдиль,Джугдиль,272,271,325,917,41.919222,47.979531,Tabasaran,,Daghestan,,798.13
2431,Tsurtil',Цуртиль,Цуртиль,193,194,194,343,41.918365,47.932001,Tabasaran,,Daghestan,,955.03
2433,Kurkak,Куркак,Куркак,208,211,275,265,41.91096,47.971699,Tabasaran,,Daghestan,,968.78
2435,Sika,Сика,Сика,,,84,112,41.89173,47.97821,Tabasaran,,Daghestan,,1212.04
2437,Yangikent,Янгикент,Янгикент,1620,1612,1045,1247,42.2042,47.8292,Kumyk,,Daghestan,,308.72
2439,,Верх. Гулли,Верх. Гулли,596,592,390,,,,,,,,
2441,,ур.Ниж.Гулли,ур.Ниж.Гулии,,,235,,,,,,,,
2443,Mallakent,Маллакент,Маллакент,132,141,125,260,42.17448,47.79664,Dargwa,,Daghestan,,491.37
2445,Tumeller,Тумеллер,Тумеллер,220,222,224,284,42.1846,47.84238,Kumyk,,Daghestan,,314.73
2447,Chumli,Чумли,Чумли,674,689,728,1874,42.20167,47.77306,Dargwa,,Daghestan,,528.41
2989,,Ашага-Араг,Ашага-Араг,408,1140,590,,,,,,,,
2989,,Ашага-Араг,Ашага-Араг,408,1140,590,,,,,,,,
2991,,разв. Юхари-Араг,разв. Юхари-Араг,308,304,282,,,,,,,,
2993,Ashagakartas,Ашагакартас,Ашагакартас,544,502,306,192,41.63177,48.1193,Lezgian,,Daghestan,,689.7
2995,,разв. Царахкент,разв. Царахкент,103,109,144,,,,,,,,
2997,Yukhari-Kartas,Юхарикартас,Юхарикартас,649,646,511,281,41.62364,48.10125,Lezgian,,Daghestan,,884.19
2999,Ashaga-Stal,Ашага-Стал,Ашага-Стал,1312,1269,1342,2854,41.69724,48.19462,Lezgian,,Daghestan,,514.98
3001,,Ашага-Стальские Казмаляры Верх.,Ашага-Стальские Казмаляры Верх.,,,87,,,,,,,,
3003,Ashaga-Stal-Kazmalyar,Ашагастал-Казмаляр,Ашагастал-Казмаляр,,,177,2979,41.681705,48.218336,Lezgian,,Daghestan,,409.45
3005,Ashaga-Tsinit,Ашага-Цинит,Ашага-Цинит,459,417,415,789,41.72324,48.00882,Lezgian,,Daghestan,,777.23
3007,Ashaga-Arkhit,Ашага-Архит,Ашага-Архит,589,546,429,811,41.734607,47.97302,Lezgian,,Daghestan,,861.14
3009,Yukhari-Arkhit,Юхари-Архит,Юхари-Архит,323,295,280,419,41.7405,47.95878,Lezgian,,Daghestan,,890.74
3011,Ashaga-Yarak,Ашага-Ярак,Ашага-Ярак,338,342,582,1329,41.822988,47.952033,Tabasaran,,Daghestan,,1242.81
3013,,разв. Чулак,разв. Чулак,408,368,385,,,,,,,,
3015,Yukhari-Yarak,Юхари-Ярак,Юхари-Ярак,269,264,359,351,41.83714,47.94825,Tabasaran,,Daghestan,,1408.49
3017,Ashar,Ашар,Ашар,669,711,614,567,41.615664,47.663417,Lezgian,,Daghestan,,1595.81
3019,Kukvaz,Кукваз,Кукваз,317,324,262,187,41.60103,47.70543,Lezgian,,Daghestan,,1471.48
3021,Burkikhan,Буркихан,Буркихан,695,710,780,1193,41.806356,47.538467,Aghul,,Daghestan,,1917.42
3023,Butkent,Буткент,Буткент,328,305,205,463,41.60008,48.17998,Lezgian,,Daghestan,,780.92
3025,Zukhrabkent,Зухрабкент,Зухрабкент,469,452,396,250,41.56687,48.1529,Lezgian,,Daghestan,,1066.82
3027,Khtun,Хтун,Хтун,277,253,120,140,41.58408,48.1739,Lezgian,,Daghestan,,977.13
3029,,разв.Векеляр,разв.Векеляр,530,472,495,,,,,,,,
3031,Alkadar,Алкадар,Алкадар,397,368,324,970,41.7163,48.08667,Lezgian,,Daghestan,,631.23
3033,Gel'khen,Гельхен,Гельхен,574,541,496,576,41.659002,47.602833,Lezgian,,Daghestan,,1740.53
3035,Kvardal,Квардал,Квардал,120,150,161,184,41.6803,47.56277,Aghul,,Daghestan,,1980.43
3037,Ukuz,Укуз,Укуз,126,143,189,35,41.696017,47.591355,Aghul,,Daghestan,,2031.93
3039,Usug,Усуг,Усуг,404,418,405,314,41.672481,47.594624,Aghul,,Daghestan,,1836.66
3041,Gil'yar,Гильяр,Гильяр,505,511,632,2023,41.559978,48.256089,Lezgian,,Daghestan,,483.14
3043,,разв. Хакикент,разв. Хакикент,225,211,249,,,,,,,,
3045,Goa,Гоа,Гоа,208,215,266,476,41.753585,47.703213,Aghul,,Daghestan,,1540.95
3047,,Друштул,Друштул,362,371,372,,,,,,,,
3049,Fite,Фите,Фите,232,227,343,754,41.79161,47.73998,Aghul,,Daghestan,,2203.35
3051,,разв.Даркуш,разв.Даркуш,452,418,351,,,,,,,,
3053,Ptikent,Птикент,Птикент,211,191,174,265,41.58452,48.10959,Lezgian,,Daghestan,,1043.77
3055,Tatarkhankent,Татарханкент,Татарханкент,523,470,545,143,41.58361,48.09608,Lezgian,,Daghestan,,964.14
3057,Duldug,Дулдуг,Дулдуг,371,386,380,544,41.76833,47.67438,Aghul,,Daghestan,,1560.98
3059,Yarkug,Яркуг,Яркуг,134,222,273,339,41.79814,47.68435,Aghul,,Daghestan,,1696.75
3061,Zaza,Заза,Заза,494,500,470,37,41.77734,48.04628,Lezgian,,Daghestan,,752.09
3063,,разв. Варта,разв. Варта,271,287,338,,,,,,,,
3065,,Ашага-Захит,Ашага-Захит,396,349,306,,,,,,,,
3067,,разв. Орта-Захит,разв. Орта-Захит,186,184,168,,,,,,,,
3069,Yukhari-Zakhit,Юхари-Захит,Юхари-Захит,372,370,325,,41.69779,47.9426,Lezgian,,Daghestan,,1153.78
3071,Zizik,Зизик,Зизик,508,494,489,1235,41.7692,48.1097,Lezgian,,Daghestan,,434.16
3073,,ур.Имамкуликент,ур.Имамкуликент,36,41,14,,,,,,,,
3075,Karchag,Карчаг,Карчаг,754,761,724,1738,41.77369,48.15948,Lezgian,,Daghestan,,309.23
3077,Ekendil',Экендиль,Экендиль,183,166,179,473,41.75518,48.13179,Lezgian,,Daghestan,,376.45
3079,Zil'dik,Зильдик,Зильдик,475,446,512,585,41.81292,47.98958,Tabasaran,,Daghestan,,1084.78
3081,,Зирдаг,Зирдаг,319,314,290,,,,,,,,
3083,Mezhgyul',Межгюль,Межгюль,701,698,792,1217,41.8061,48.0075,Tabasaran,,Daghestan,,1069.6
3085,Ikra,Икра,Икра,1343,1085,1288,1620,41.5633,48.0094,Lezgian,,Daghestan,,996.63
3087,Rugun,Ругун,Ругун,64,59,92,149,41.595917,47.995977,Lezgian,,Daghestan,,1162.18
3089,Ispik,Испик,Испик,520,485,581,1274,41.61489,48.19118,Lezgian,,Daghestan,,714.95
3091,Asalikent,Асаликент,Асаликент,331,318,339,322,41.6298,48.16777,Lezgian,,Daghestan,,578.46
3093,,разв.Гезеркент,разв.Гезеркент,97,84,135,,,,,,,,
3095,Shikhikent,Шихикент,Шихикент,481,439,423,964,41.604121,48.165102,Lezgian,,Daghestan,,795.78
3097,Kabir-Kazmalyar,Кабир-Казмаляр,Кабир-Казмаляр,,,411,2191,41.7498,48.48848,Lezgian,,Daghestan,,129.1
3099,,Газардкам-Казмаляр,Газардкам-Казмаляр,,,100,378,,,,,,,
3101,,Гильяр-Казм.,Гильяр-Казм.,,,67,,,,,,,,
3103,,Коган-Казм.,Коган-Казм.,,,25,,,,,,,,
3105,Kchun-Kazmalyar,Кчун-Казмаляр,Кчун-Казмаляр,,,135,723,41.76261,48.48966,Lezgian,,Daghestan,,112.61
3107,Kondik,Кондик,Кондик,572,582,741,1459,41.8028,47.8733,Tabasaran,,Daghestan,,1352.59
3109,Archug,Арчуг,Арчуг,100,102,158,109,41.7843,47.86009,Tabasaran,,Daghestan,,1382.79
3111,Chuvek,Чувек,Чувек,363,86,408,750,41.807699,47.901711,Tabasaran,,Daghestan,,1131.24
3113,Kabir,Кабир,Кабир,1932,1987,1135,1424,41.5592,48.0444,Lezgian,,Daghestan,,942.85
3115,Kartas-Kazmalyar,Картас-Казмаляр,Картас-Казмаляр,,,212,1817,41.81717,48.39484,Lezgian,,Daghestan,,81.33
3117,,Араг-Казмаляр,Араг-Казмаляр,,,70,,,,,,,,
3119,,Векеляр,Векеляр,,,22,,,,,,,,
3121,Darkush-Kazmalyar,Даркушказмаляр,Даркушказмаляр,,,132,2805,41.80608,48.38985,Lezgian,,Daghestan,,96.48
3123,Novaya Maka,Новая Мака,Новая Мака,99,80,28,3704,41.772025,48.359721,Lezgian,,Daghestan,,189.36
3125,Kasumkent,Касумкент,Касумкент,580,623,1296,13234,41.6789,48.1394,Lezgian,,Daghestan,,500.51
3127,,ур.Аликент,ур.Аликент,679,783,691,,,,,,,,
3129,,разв.Кимихюр,разв.Кимихюр,212,229,186,,,,,,,,
3131,,разв.Титель,разв.Титель,322,291,191,,,,,,,,
3133,Khyurekhyur,Хюрехюр,Хюрехюр,311,377,360,356,41.5591,47.7417,Lezgian,,Daghestan,,1976.6
3135,Kontsil',Конциль,Конциль,636,604,603,428,41.751813,48.018508,Lezgian,,Daghestan,,900.85
3137,Asakent,Асакент,Асакент,309,273,219,107,41.75759,48.00748,Lezgian,,Daghestan,,1033.77
3139,Koshkent,Кошкент,Кошкент,539,518,469,645,41.7414,48.0386,Lezgian,,Daghestan,,841.12
3141,,Дардаркент,Дардаркент,288,258,196,367,,,,,,,
3143,Sardarkent,Сардаркент,Сардаркент,152,147,178,721,41.7255,48.0622,Lezgian,,Daghestan,,680.35
3145,Kug,Куг,Куг,579,611,696,862,41.7711,47.9647,Lezgian,,Daghestan,,1202.62
3147,Yargil',Яргиль,Яргиль,477,463,470,38,41.79004,47.95429,Tabasaran,,Daghestan,,1147.86
3149,Kurag,Кураг,Кураг,260,225,352,420,41.836764,47.661351,Aghul,,Daghestan,,1823.28
3151,Arsug,Арсуг,Арсуг,286,316,331,235,41.86408,47.65011,Aghul,,Daghestan,,1990.76
3153,Burshag,Буршаг,Буршаг,291,289,341,655,41.89626,47.64102,Aghul,,Daghestan,,2223.84
3155,Khudig,Худиг,Худиг,286,305,314,670,41.85373,47.65854,Aghul,,Daghestan,,1964.59
3157,Kurakh,Курах,Курах,1867,1751,1993,3236,41.5842,47.7842,Lezgian,,Daghestan,,1339.51
3159,Kurkent,Куркент,Куркент,931,896,1136,4074,41.7133,48.1094,Lezgian,,Daghestan,,593.74
3161,Kochkhyur (Kuchkhyur),Кочхюр,Кочхюр,1134,1127,865,,41.5225,47.86562,Lezgian,,Daghestan,,1423.3
3163,Lyakhlya,Ляхля,Ляхля,220,210,312,614,41.88087,47.87761,Tabasaran,,Daghestan,,1036.99
3165,Garig,Гарик,Гарик,88,89,103,37,41.8766,47.88498,Tabasaran,,Daghestan,,1111.51
3167,Kuvig,Кувиг,Кувиг,227,246,166,102,41.88482,47.886538,Tabasaran,,Daghestan,,1073.28
3169,Kulig,Кулиг,Кулиг,128,138,123,120,41.874076,47.865347,Tabasaran,,Daghestan,,1134.12
3171,Kushtil',Куштиль,Куштиль,422,421,389,964,41.8289,47.8894,Tabasaran,,Daghestan,,1233.29
3173,Urtil',Уртиль,Уртиль,86,84,136,158,41.89153,47.89347,Tabasaran,,Daghestan,,1063.07
3175,Magaramkent,Магарамкент,Магарамкент,369,312,503,6951,41.6186,48.3514,Lezgian,,Daghestan,,356.13
3177,,разв.Куйсун,разв.Куйсун,608,588,315,,,,,,,,
3179,Kuysun,Куйсун,Куйсун,,,160,3194,41.57303,48.28712,Lezgian,,Daghestan,,462.9
3181,,Магарам-Кент Казмаляр,Магарам-Кент Казмаляр,,,58,,,,,,,,
3183,,Тагиркент,Тагиркент,465,403,172,356,,,,,,,
3185,Khodzha-Kazmalyar,Ходжа-Казмаляр,Ходжа-Казмаляр,,,127,1443,41.72534,48.438,Lezgian,,Daghestan,,195.15
3187,,Яраг-Казмаляр,Яраг-Казмаляр,,,390,2980,,,,,,,
3189,,разв.Ашага-Мака,разв.Ашага-Мака,289,324,345,,,,,,,,
3191,,разв.Бурши-Мака,разв.Бурши-Мака,288,290,260,,,,,,,,
3193,,разв.Юхари-Мака,разв.Юхари-Мака,424,453,349,,,,,,,,
3195,,разв.Мугерган,разв.Мугерган,657,605,464,,,,,,,,
3197,Mugergan,Мугерган,Мугерган,,,341,1539,41.519797,48.175977,Lezgian,,Daghestan,,576.88
3199,Nyutyug,Нютюг,Нютюг,690,671,695,1231,41.75392,48.11773,Lezgian,,Daghestan,,399.9
3201,Chilikar,Чиликар,Чиликар,373,353,406,485,41.74196,48.065,Lezgian,,Daghestan,,750.97
3203,Orta-Stal,Орта-Стал,Орта-Стал,701,655,1052,2842,41.70335,48.17075,Lezgian,,Daghestan,,562.42
3205,Yukhari-Stal,Юхари-Стал,Юхари-Стал,574,517,710,1709,41.70734,48.1548,Lezgian,,Daghestan,,592.75
3207,Oruzhba,Оружба,Оружба,143,107,203,1840,41.775686,48.432854,Lezgian,,Daghestan,,128.88
3209,Azadogly,Азадоглы,Азадоглы,36,42,297,1695,41.83019,48.44848,Lezgian,,Daghestan,,37.29
3211,,Давуд-Келе,Давуд-Келе,,,48,,,,,,,,
3213,,ур.Салик,ур.Салик,124,145,159,,,,,,,,
3215,Yarukvalar,Яруквалар,Яруквалар,,,1387,436,41.79842,48.41318,Lezgian,,Daghestan,,110.91
3217,Richa,Рича,Рича,653,625,885,1270,41.763646,47.502769,Aghul,,Daghestan,,2053.85
3219,Bedyuk,Бедюк,Бедюк,209,221,292,301,41.716044,47.525715,Aghul,,Daghestan,,2171.84
3221,Khveredzh,Хвередж,Хвередж,186,204,210,240,41.70206,47.57218,Aghul,,Daghestan,,1972.66
3223,,разв.Рухун,разв.Рухун,472,455,458,,,,,,,,
3225,Ichin,Ичин,Ичин,484,481,434,333,41.68263,47.99189,Lezgian,,Daghestan,,848.01
3227,,разв.Куркуркент,разв.Куркуркент,255,320,238,,,,,,,,
3229,,разв.Мехкерг,разв.Мехкерг,357,343,285,,,,,,,,
3231,,разв. Сыртыч,разв. Сыртыч,417,419,483,,,,,,,,
3233,,разв.Гюграг,разв.Гюграг,215,224,315,,,,,,,,
3235,,разв.Гензир,разв.Гензир,98,106,129,,,,,,,,
3237,,разв.Мехтикент,разв.Мехтикент,93,98,99,,,,,,,,
3239,,Уджик,Уджик,99,93,132,,,,,,,,
3241,,ур.Хурцик,ур.Хурцик,176,165,184,,,,,,,,
3243,Tagirkent-Kazmalyar,Тагиркент-Казмаляр,Тагиркент-Казмаляр,,,504,3004,41.814927,48.511106,Lezgian,,Daghestan,,41.83
3245,,Алла-Кавах,Алла-Кавах,,,125,,,,,,,,
3247,Bil'bil'-Kazmalyar,Бильбиль-Казмаляр,Бильбиль-Казмаляр,,,443,2042,41.82188,48.5448,Lezgian,,Daghestan,,23.21
3249,Samur,Самур,Самур,,,324,3432,41.829176,48.487012,Lezgian,,Daghestan,,31.95
3251,,ур.Пеперкенд-Казма,ур.Пеперкенд-Казма,,,229,,,,,,,,
3253,,,полустанок Самур,,,59,,,,,,,,
3255,,Уллу-Готагский Казмаляр,Уллу-Готагский Казмаляр,,,47,,,,,,,,
3257,,ур.Фергяткент,ур.Фергяткент,60,48,62,,,,,,,,
3259,Khtun-Kazmalyar,Хтун-Казмаляр,Хтун-Казмаляр,,,229,1511,41.81114,48.51884,Lezgian,,Daghestan,,41.75
3261,,Целегюн-Казмаляр,Целегюн-Казмаляр,,,57,,,,,,,,
3263,Chakhchakh-Kazmalyar,Чахчах-Казмаляр,Чахчах-Казмаляр,,,198,1928,41.78651,48.50046,Lezgian,,Daghestan,,81.07
3265,Trkal,Тркал,Тркал,485,473,372,25,41.716681,47.970481,Lezgian,,Daghestan,,1080.55
3267,Tslak,Цлак,Цлак,441,439,418,146,41.71272,47.93997,Lezgian,,Daghestan,,1105.7
3269,,разв.Фриг,разв.Фриг,415,417,334,,,,,,,,
3271,,разв.Юхари-Цинит,разв.Юхари-Цинит,192,293,173,,,,,,,,
3273,Tinit,Тинит,Тинит,205,201,300,1385,41.9131,48.0592,Tabasaran,,Daghestan,,485.76
3275,Burgankent,Бурганкент,Бурганкент,104,105,146,704,41.89939,48.06439,Tabasaran,,Daghestan,,621.02
3277,,Ружник,Ружник,246,256,259,,,,,,,,
3279,Turuf,Туруф,Туруф,501,448,443,388,41.90569,48.00688,Tabasaran,,Daghestan,,908.65
3281,Tpig,Тпиг,Тпиг,820,712,888,2730,41.780423,47.589523,Aghul,,Daghestan,,1709.61
3283,Turag,Тураг,Тураг,676,688,842,1163,41.8586,47.9744,Tabasaran,,Daghestan,,1187.52
3285,Nichras,Ничрас,Ничрас,280,305,403,881,41.84358,48.01174,Tabasaran,,Daghestan,,1166.76
3287,,разв.Куярик,разв.Куярик,222,227,257,,,,,,,,
3289,Ullugatag,Уллугатаг,Уллугатаг,653,581,542,633,41.6031,48.1256,Lezgian,,Daghestan,,806.47
3291,Piperkent,Пиперкент,Пиперкент,365,233,174,226,41.59186,48.14726,Lezgian,,Daghestan,,926.79
3293,Saytarkent,Сайтаркент,Сайтаркент,458,421,347,462,41.58508,48.12701,Lezgian,,Daghestan,,996.04
3295,,Чантаркент,Чантаркент,185,174,218,,,,,,,,
3297,Urga,Урга,Урга,148,154,163,270,41.869933,47.85522,Tabasaran,,Daghestan,,1243.76
3299,Atrik,Атрик,Атрик,136,156,188,238,41.88042,47.78046,Tabasaran,,Daghestan,,1743.98
3301,Vertil',Вертиль,Вертиль,129,135,110,170,41.87358,47.85893,Tabasaran,,Daghestan,,1274.96
3303,Dzhuli,Джули,Джули,358,390,386,631,41.8822,47.85399,Tabasaran,,Daghestan,,1153.94
3305,Furdag,Фурдаг,Фурдаг,156,166,201,202,41.86348,47.86215,Tabasaran,,Daghestan,,1220.22
3307,Khursatil',Хурсатиль,Хурсатиль,107,116,136,43,41.862503,47.793991,Tabasaran,,Daghestan,,1746.03
3309,,Яраг,Яраг,92,89,103,,,,,,,,
3311,,МТФ Ханджалкала,МТФ Ханджалкала,239,212,275,,,,,,,,
3313,But-Kazmalyar,Бутказмаляр,Бутказмаляр,,,131,3127,41.705274,48.396665,Lezgian,,Daghestan,,247.46
3315,,Готаг-Казмаляр,Готаг-Казмаляр,,,45,,,,,,,,
3317,,Советское,Советское,397,474,111,4220,,,,,,,
3319,Khiv,Хив,Хив,724,729,844,2659,41.7533,47.9286,Tabasaran,,Daghestan,,959.44
3321,Tsuduk,Цудук,Цудук,136,134,202,417,41.78225,47.89671,Tabasaran,,Daghestan,,1186.34
3323,Khoredzh,Хоредж,Хоредж,417,449,640,1080,41.74914,47.8667,Tabasaran,,Daghestan,,1119.69
3325,Laka,Лака,Лака,216,219,199,606,41.75705,47.88114,Tabasaran,,Daghestan,,1068.11
3327,,(старый) Хорель,(старый) Хорель,417,422,547,,,,,,,,
3329,Dzhepel',Джепель,Джепель,123,106,195,634,41.54977,48.21947,Lezgian,,Daghestan,,543.11
3331,,разв. Кирка,разв. Кирка,612,556,463,,,,,,,,
3333,Kirka,Кирка,Кирка,,,96,1252,41.5369,48.1894,Lezgian,,Daghestan,,571.18
3335,Khorel',Хорель,Хорель,,,50,1013,41.53763,48.20011,Lezgian,,Daghestan,,544.56
3337,,разв.Хулюг,разв.Хулюг,125,127,178,,,,,,,,
3339,,разв.Дашлыкент,разв.Дашлыкент,135,136,182,,,,,,,,
3341,Khyuryak,Хюряк,Хюряк,117,124,202,416,41.88238,48.07289,Tabasaran,,Daghestan,,517.97
3343,,разв.Джахдаг,разв.Джахдаг,100,99,118,,,,,,,,
3345,,разв.Хутарг,разв.Хутарг,517,446,443,,,,,,,,
3347,,разв.Бигер,разв.Бигер,177,267,183,,,,,,,,
3349,,разв. Киан,разв. Киан,309,325,303,,,,,,,,
3351,,Хпитар,Хпитар,284,304,268,,,,,,,,
3353,,разв. Чухверкент,разв. Чухверкент,312,330,247,,,,,,,,
3355,,разв.Эвигар,разв.Эвигар,342,351,400,,,,,,,,
3357,Khutkhul,Хутхул,Хутхул,604,670,674,627,41.78517,47.61451,Aghul,,Daghestan,,1669.49
3359,Misi,Миси,Миси,213,235,231,285,41.80991,47.60329,Aghul,,Daghestan,,1813.04
3361,,разв.Целягюн,разв.Целягюн,615,587,487,,,,,,,,
3363,,Алкадар-Казмаляр,Алкадар-Казмаляр,,,14,,,,,,,,
3365,,МТФ клх. Новый Путь,МТФ клх. Новый Путь,22,19,23,,,,,,,,
3367,,Картас-Казмаляр,Картас-Казмаляр,,,24,,,,,,,,
3369,,разв. Махмудкент,разв. Махмудкент,469,413,205,,,,,,,,
3371,,Махмуд-Кент-Казмаляр,Махмуд-Кент-Казмаляр,,,179,,,,,,,,
3373,Sal'yan,Сальян,Сальян,173,165,192,97,41.63006,48.19895,Lezgian,,Daghestan,,697.3
3375,,Целягюн-Казмаляр,Целягюн-Казмаляр,,,12,,,,,,,,
3377,,разв.Цилинг,разв.Цилинг,652,587,455,,,,,,,,
3379,Akhnig,Ахниг,Ахниг,430,442,300,21,41.5232,47.99481,Lezgian,,Daghestan,,1169.37
3381,Bakhtsug,Бахцуг,Бахцуг,518,573,279,166,41.50975,47.95065,Lezgian,,Daghestan,,1282.39
3383,,разв.Цициг,разв.Цициг,370,381,374,,,,,,,,
3385,,разв.Келе,разв.Келе,390,410,409,,,,,,,,
3387,,Хпек,Хпек,424,403,342,227,,,,,,,
3389,,Чилик,Чилик,374,340,373,,,,,,,,
3391,Tsmur,Цмур,Цмур,598,668,578,625,41.6842,48.0567,Lezgian,,Daghestan,,657.29
3393,Kachalkent,Качалкент,Качалкент,239,241,217,258,41.66885,48.04288,Lezgian,,Daghestan,,691.37
3395,Saidkent,Саидкент,Саидкент,298,281,315,1007,41.70213,48.11319,Lezgian,,Daghestan,,568.09
3397,Tsnal,Цнал,Цнал,889,939,728,672,41.69641,47.99767,Lezgian,,Daghestan,,1040.45
3399,,Камаркент,Камаркент,100,88,69,,,,,,,,
3401,,разв.Кура,разв.Кура,92,88,71,,,,,,,,
3403,Chere,Чере,Чере,692,703,841,313,41.80685,48.0425,Tabasaran,,Daghestan,,852.19
3405,Chulat,Чулат,Чулат,420,396,292,1309,41.880921,48.154399,Tabasaran,,Daghestan,,217.95
3407,Gyukhryag,Гюхряг,Гюхряг,201,172,91,1456,41.854055,48.172785,Tabasaran,,Daghestan,,193.25
3409,,Гугнох-Казм.,Гугнох-Казм.,,,70,,,,,,,,
3411,,Джараг,Джараг,291,329,19,,,,,,,,
3413,,ур.Чулат-Казмаляр,ур.Чулат-Казмаляр,,,81,,,,,,,,
3415,,кут. Экендиль,кут. Экендиль,176,181,70,,,,,,,,
3417,,Экентильский Казмаляр,Экентильский Казмаляр,,,123,,,,,,,,
3419,Shimikhyur,Шимихюр,Шимихюр,330,372,398,427,41.6539,47.6994,Lezgian,,Daghestan,,1831.21
3421,,Урсун,Урсун,118,165,186,87,,,,,,,
3423,Khpedzh,Хпедж,Хпедж,510,559,533,244,41.62212,47.72586,Lezgian,,Daghestan,,1596.53
3425,Khpyuk,Хпюк,Хпюк,310,368,397,363,41.66667,47.66667,Aghul,,Daghestan,,2186.07
3427,Shtul,Штул,Штул,1191,1102,793,258,41.554702,47.919293,Lezgian,,Daghestan,,1094.69
3429,Ashakent,Ашакент,Ашакент,,,279,210,41.59479,47.87241,Lezgian,,Daghestan,,1874.19
3431,,разв. Кумук,разв. Кумук,316,283,271,,,,,,,,
3433,Kutul,Кутул,Кутул,370,358,225,195,41.54576,47.9666,Lezgian,,Daghestan,,996.89
3435,,разв.Юхары-Яраг,разв.Юхары-Яраг,751,684,449,,,,,,,,
3437,,разв.Ашага-Яраг,разв.Ашага-Яраг,370,418,406,,,,,,,,
3439,,разв.Береккент,разв.Береккент,259,241,62,,,,,,,,
3441,,разв.Бильбилькент,разв.Бильбилькент,429,472,98,,,,,,,,
3443,,разв. Кансавкент,разв. Кансавкент,211,206,244,,,,,,,,
3445,,Ялцугар,Ялцугар,245,266,316,,,,,,,,
3447,Kakhtsug,Кахцуг,Кахцуг,488,441,394,643,41.59957,48.06005,Lezgian,,Daghestan,,697.79
3449,,разв. Маккар,разв. Маккар,115,114,206,,,,,,,,
3451,Sarag,Сараг,Сараг,,,78,28,41.60273,48.0164,Lezgian,,Daghestan,,1040.12
3453,,разв.Цицер,разв.Цицер,110,110,81,,,,,,,,
3455,Amukh,Амух,Амух,327,350,304,118,41.9142,47.5422,Dargwa,,Daghestan,,2266.56
3457,Anklukh,Анклух,Анклух,189,177,195,13,41.91667,47.53333,Dargwa,,Daghestan,,1976.4
3459,Tsirkhe,Цирхе,Цирхе,169,172,174,7,41.91513,47.59679,Aghul,,Daghestan,,2062.88
3461,,Ахар,Ахар,595,576,411,,,,,,,,
3463,,ур.Арчутта,ур.Арчутта,78,76,51,,,,,,,,
3465,Viraty,Вираты,Вираты,143,159,129,50,42.15675,47.20107,Lak,,Daghestan,,1910.84
3467,Inisha,Иниша,Иниша,167,163,114,131,42.15031,47.20492,Lak,,Daghestan,,1710.07
3469,,разв. Куци,разв. Куци,72,72,57,,,,,,,,
